{
"type": "FeatureCollection",
"name": "jabodetabek_pois",
"crs": { "type": "name", "properties": { "name": "urn:ogc:def:crs:OGC:1.3:CRS84" } },
"features": [
{ "type": "Feature", "properties": { "poi_id": "POI-HOS-1741447941", "name": "Rumah Sakit Ibu dan Anak Buah Hati Pamulang", "category": "hospital", "osm_id": "1741447941", "osm_type": "node", "lat": -6.3440544, "lon": 106.7208135, "needs_manual_verify": true }, "geometry": { "type": "Point", "coordinates": [ 106.7208135, -6.3440544 ] } },
{ "type": "Feature", "properties": { "poi_id": "POI-HOS-1752239081", "name": "RSUD Leuwiliang", "category": "hospital", "osm_id": "1752239081", "osm_type": "node", "lat": -6.5747943, "lon": 106.6274907, "needs_manual_verify": true }, "geometry": { "type": "Point", "coordinates": [ 106.6274907, -6.5747943 ] } },
{ "type": "Feature", "properties": { "poi_id": "POI-HOS-1994733704", "name": "RS Harapan", "category": "hospital", "osm_id": "1994733704", "osm_type": "node", "lat": -6.299652, "lon": 107.1594616, "needs_manual_verify": true }, "geometry": { "type": "Point", "coordinates": [ 107.1594616, -6.299652 ] } },
{ "type": "Feature", "properties": { "poi_id": "POI-HOS-1997186272", "name": "RS Medirosa", "category": "hospital", "osm_id": "1997186272", "osm_type": "node", "lat": -6.2993856, "lon": 107.1452333, "needs_manual_verify": true }, "geometry": { "type": "Point", "coordinates": [ 107.1452333, -6.2993856 ] } },
{ "type": "Feature", "properties": { "poi_id": "POI-HOS-2639374228", "name": "RS Jatisampurna", "category": "hospital", "osm_id": "2639374228", "osm_type": "node", "lat": -6.3469747, "lon": 106.9257805, "needs_manual_verify": true }, "geometry": { "type": "Point", "coordinates": [ 106.9257805, -6.3469747 ] } },
{ "type": "Feature", "properties": { "poi_id": "POI-HOS-4244121741", "name": "RS An-Nisa Tangerang", "category": "hospital", "osm_id": "4244121741", "osm_type": "node", "lat": -6.1879717, "lon": 106.6046942, "needs_manual_verify": true }, "geometry": { "type": "Point", "coordinates": [ 106.6046942, -6.1879717 ] } },
{ "type": "Feature", "properties": { "poi_id": "POI-HOS-4244128059", "name": "RS Umum Bella", "category": "hospital", "osm_id": "4244128059", "osm_type": "node", "lat": -6.2471625, "lon": 107.0105409, "needs_manual_verify": true }, "geometry": { "type": "Point", "coordinates": [ 107.0105409, -6.2471625 ] } },
{ "type": "Feature", "properties": { "poi_id": "POI-HOS-4245857399", "name": "Rumah Sakit TK. IV. Daan Mogot", "category": "hospital", "osm_id": "4245857399", "osm_type": "node", "lat": -6.1720419, "lon": 106.6315275, "needs_manual_verify": true }, "geometry": { "type": "Point", "coordinates": [ 106.6315275, -6.1720419 ] } },
{ "type": "Feature", "properties": { "poi_id": "POI-HOS-4245869772", "name": "Rumah Sakit Simpangan Depok", "category": "hospital", "osm_id": "4245869772", "osm_type": "node", "lat": -6.4087799, "lon": 106.8616926, "needs_manual_verify": true }, "geometry": { "type": "Point", "coordinates": [ 106.8616926, -6.4087799 ] } },
{ "type": "Feature", "properties": { "poi_id": "POI-HOS-4245882810", "name": "RS Mutiara Bunda Ciledug", "category": "hospital", "osm_id": "4245882810", "osm_type": "node", "lat": -6.2307031, "lon": 106.7209531, "needs_manual_verify": true }, "geometry": { "type": "Point", "coordinates": [ 106.7209531, -6.2307031 ] } },
{ "type": "Feature", "properties": { "poi_id": "POI-HOS-4245886389", "name": "Rumah Sakit Mulia Insani", "category": "hospital", "osm_id": "4245886389", "osm_type": "node", "lat": -6.2263277, "lon": 106.5104818, "needs_manual_verify": true }, "geometry": { "type": "Point", "coordinates": [ 106.5104818, -6.2263277 ] } },
{ "type": "Feature", "properties": { "poi_id": "POI-HOS-4253851059", "name": "Rumah Sakit Trijata", "category": "hospital", "osm_id": "4253851059", "osm_type": "node", "lat": -6.3009346, "lon": 106.6819356, "needs_manual_verify": true }, "geometry": { "type": "Point", "coordinates": [ 106.6819356, -6.3009346 ] } },
{ "type": "Feature", "properties": { "poi_id": "POI-HOS-4345315789", "name": "RS Annisa", "category": "hospital", "osm_id": "4345315789", "osm_type": "node", "lat": -6.4828569, "lon": 106.8703423, "needs_manual_verify": true }, "geometry": { "type": "Point", "coordinates": [ 106.8703423, -6.4828569 ] } },
{ "type": "Feature", "properties": { "poi_id": "POI-HOS-5057829927", "name": "Rumah Sakit Pinna Tambun", "category": "hospital", "osm_id": "5057829927", "osm_type": "node", "lat": -6.2237664, "lon": 107.0322284, "needs_manual_verify": true }, "geometry": { "type": "Point", "coordinates": [ 107.0322284, -6.2237664 ] } },
{ "type": "Feature", "properties": { "poi_id": "POI-HOS-5673769081", "name": "Rumah Sakit Pelita Harapan", "category": "hospital", "osm_id": "5673769081", "osm_type": "node", "lat": -6.1698218, "lon": 106.7837097, "needs_manual_verify": true }, "geometry": { "type": "Point", "coordinates": [ 106.7837097, -6.1698218 ] } },
{ "type": "Feature", "properties": { "poi_id": "POI-HOS-5994596682", "name": "Rumah Sakit Ketergantungan Obat", "category": "hospital", "osm_id": "5994596682", "osm_type": "node", "lat": -6.3469579, "lon": 106.8724481, "needs_manual_verify": true }, "geometry": { "type": "Point", "coordinates": [ 106.8724481, -6.3469579 ] } },
{ "type": "Feature", "properties": { "poi_id": "POI-HOS-6154809387", "name": "RS Melati", "category": "hospital", "osm_id": "6154809387", "osm_type": "node", "lat": -6.1778051, "lon": 106.6252084, "needs_manual_verify": true }, "geometry": { "type": "Point", "coordinates": [ 106.6252084, -6.1778051 ] } },
{ "type": "Feature", "properties": { "poi_id": "POI-HOS-6210541001", "name": "RSUD TARAKAN JAKARTA", "category": "hospital", "osm_id": "6210541001", "osm_type": "node", "lat": -6.1715508, "lon": 106.8102456, "needs_manual_verify": true }, "geometry": { "type": "Point", "coordinates": [ 106.8102456, -6.1715508 ] } },
{ "type": "Feature", "properties": { "poi_id": "POI-HOS-6210541003", "name": "RSUD Tarakan", "category": "hospital", "osm_id": "6210541003", "osm_type": "node", "lat": -6.1723055, "lon": 106.8106017, "needs_manual_verify": true }, "geometry": { "type": "Point", "coordinates": [ 106.8106017, -6.1723055 ] } },
{ "type": "Feature", "properties": { "poi_id": "POI-HOS-6269568790", "name": "RS Tiara Tangerang", "category": "hospital", "osm_id": "6269568790", "osm_type": "node", "lat": -6.195421, "lon": 106.6151283, "needs_manual_verify": true }, "geometry": { "type": "Point", "coordinates": [ 106.6151283, -6.195421 ] } },
{ "type": "Feature", "properties": { "poi_id": "POI-HOS-7149412183", "name": "RS Harapan Mulia", "category": "hospital", "osm_id": "7149412183", "osm_type": "node", "lat": -6.4345659, "lon": 107.069081, "needs_manual_verify": true }, "geometry": { "type": "Point", "coordinates": [ 107.069081, -6.4345659 ] } },
{ "type": "Feature", "properties": { "poi_id": "POI-HOS-7150095847", "name": "Rumah Sakit Harapan Mulia", "category": "hospital", "osm_id": "7150095847", "osm_type": "node", "lat": -6.4348412, "lon": 107.0687318, "needs_manual_verify": true }, "geometry": { "type": "Point", "coordinates": [ 107.0687318, -6.4348412 ] } },
{ "type": "Feature", "properties": { "poi_id": "POI-HOS-8495217762", "name": "RS Taman Harapan Baru", "category": "hospital", "osm_id": "8495217762", "osm_type": "node", "lat": -6.176561, "lon": 106.9984142, "needs_manual_verify": true }, "geometry": { "type": "Point", "coordinates": [ 106.9984142, -6.176561 ] } },
{ "type": "Feature", "properties": { "poi_id": "POI-HOS-9064896760", "name": "Rumah Sakit Ibu dan Anak Ibnu Sina", "category": "hospital", "osm_id": "9064896760", "osm_type": "node", "lat": -6.1604025, "lon": 106.7960691, "needs_manual_verify": true }, "geometry": { "type": "Point", "coordinates": [ 106.7960691, -6.1604025 ] } },
{ "type": "Feature", "properties": { "poi_id": "POI-HOS-9531931749", "name": "RSUD KEBAYORAN BARU", "category": "hospital", "osm_id": "9531931749", "osm_type": "node", "lat": -6.2688379, "lon": 106.7965498, "needs_manual_verify": true }, "geometry": { "type": "Point", "coordinates": [ 106.7965498, -6.2688379 ] } },
{ "type": "Feature", "properties": { "poi_id": "POI-HOS-9673637917", "name": "IGD RS PMI Bogor", "category": "hospital", "osm_id": "9673637917", "osm_type": "node", "lat": -6.5980869, "lon": 106.8062688, "needs_manual_verify": true }, "geometry": { "type": "Point", "coordinates": [ 106.8062688, -6.5980869 ] } },
{ "type": "Feature", "properties": { "poi_id": "POI-HOS-9677845026", "name": "RS Rumah Sehat Terpadu", "category": "hospital", "osm_id": "9677845026", "osm_type": "node", "lat": -6.472592, "lon": 106.7285739, "needs_manual_verify": true }, "geometry": { "type": "Point", "coordinates": [ 106.7285739, -6.472592 ] } },
{ "type": "Feature", "properties": { "poi_id": "POI-HOS-9699580008", "name": "RSUD Jatisampurna", "category": "hospital", "osm_id": "9699580008", "osm_type": "node", "lat": -6.3634629, "lon": 106.9215198, "needs_manual_verify": true }, "geometry": { "type": "Point", "coordinates": [ 106.9215198, -6.3634629 ] } },
{ "type": "Feature", "properties": { "poi_id": "POI-HOS-9751216344", "name": "RS Cikarang Medika", "category": "hospital", "osm_id": "9751216344", "osm_type": "node", "lat": -6.2520254, "lon": 107.1447225, "needs_manual_verify": true }, "geometry": { "type": "Point", "coordinates": [ 107.1447225, -6.2520254 ] } },
{ "type": "Feature", "properties": { "poi_id": "POI-HOS-9770142233", "name": "Rumah Sakit Primaya", "category": "hospital", "osm_id": "9770142233", "osm_type": "node", "lat": -6.171649, "lon": 106.5520513, "needs_manual_verify": true }, "geometry": { "type": "Point", "coordinates": [ 106.5520513, -6.171649 ] } },
{ "type": "Feature", "properties": { "poi_id": "POI-HOS-10181987329", "name": "RSUD Kota Depok", "category": "hospital", "osm_id": "10181987329", "osm_type": "node", "lat": -6.4040302, "lon": 106.7582441, "needs_manual_verify": true }, "geometry": { "type": "Point", "coordinates": [ 106.7582441, -6.4040302 ] } },
{ "type": "Feature", "properties": { "poi_id": "POI-HOS-11043198160", "name": "Rumah Sakit Dr. Abdul Radjak, Cibitung", "category": "hospital", "osm_id": "11043198160", "osm_type": "node", "lat": -6.2434078, "lon": 107.1524209, "needs_manual_verify": true }, "geometry": { "type": "Point", "coordinates": [ 107.1524209, -6.2434078 ] } },
{ "type": "Feature", "properties": { "poi_id": "POI-HOS-11578451908", "name": "Rumah Sakit Ibu dan Anak Aries", "category": "hospital", "osm_id": "11578451908", "osm_type": "node", "lat": -6.1576355, "lon": 106.809994, "needs_manual_verify": true }, "geometry": { "type": "Point", "coordinates": [ 106.809994, -6.1576355 ] } },
{ "type": "Feature", "properties": { "poi_id": "POI-HOS-11778237962", "name": "RS FIRDAUS", "category": "hospital", "osm_id": "11778237962", "osm_type": "node", "lat": -6.156138, "lon": 106.923068, "needs_manual_verify": true }, "geometry": { "type": "Point", "coordinates": [ 106.923068, -6.156138 ] } },
{ "type": "Feature", "properties": { "poi_id": "POI-HOS-11878621854", "name": "RS YARSI JAKARTA", "category": "hospital", "osm_id": "11878621854", "osm_type": "node", "lat": -6.1698396, "lon": 106.8690492, "needs_manual_verify": true }, "geometry": { "type": "Point", "coordinates": [ 106.8690492, -6.1698396 ] } },
{ "type": "Feature", "properties": { "poi_id": "POI-HOS-11878641454", "name": "RSUD KALIDERES", "category": "hospital", "osm_id": "11878641454", "osm_type": "node", "lat": -6.1461812, "lon": 106.7082289, "needs_manual_verify": true }, "geometry": { "type": "Point", "coordinates": [ 106.7082289, -6.1461812 ] } },
{ "type": "Feature", "properties": { "poi_id": "POI-HOS-11878659444", "name": "RS SILOAM KEBON JERUK", "category": "hospital", "osm_id": "11878659444", "osm_type": "node", "lat": -6.1908388, "lon": 106.7637229, "needs_manual_verify": true }, "geometry": { "type": "Point", "coordinates": [ 106.7637229, -6.1908388 ] } },
{ "type": "Feature", "properties": { "poi_id": "POI-HOS-11878675946", "name": "RS MEDIKA PERMATA HIJAU", "category": "hospital", "osm_id": "11878675946", "osm_type": "node", "lat": -6.2181713, "lon": 106.778025, "needs_manual_verify": true }, "geometry": { "type": "Point", "coordinates": [ 106.778025, -6.2181713 ] } },
{ "type": "Feature", "properties": { "poi_id": "POI-HOS-11878676583", "name": "RSUD TAMAN SARI", "category": "hospital", "osm_id": "11878676583", "osm_type": "node", "lat": -6.143789, "lon": 106.819198, "needs_manual_verify": true }, "geometry": { "type": "Point", "coordinates": [ 106.819198, -6.143789 ] } },
{ "type": "Feature", "properties": { "poi_id": "POI-HOS-11878679140", "name": "RS CIPUTRA CITRAGARDEN CITY", "category": "hospital", "osm_id": "11878679140", "osm_type": "node", "lat": -6.1230894, "lon": 106.704998, "needs_manual_verify": true }, "geometry": { "type": "Point", "coordinates": [ 106.704998, -6.1230894 ] } },
{ "type": "Feature", "properties": { "poi_id": "POI-HOS-11878683364", "name": "RS MENTENG MITRA AFIA", "category": "hospital", "osm_id": "11878683364", "osm_type": "node", "lat": -6.1869354, "lon": 106.838375, "needs_manual_verify": true }, "geometry": { "type": "Point", "coordinates": [ 106.838375, -6.1869354 ] } },
{ "type": "Feature", "properties": { "poi_id": "POI-HOS-11878684983", "name": "RS HERMINA DAAN MOGOT", "category": "hospital", "osm_id": "11878684983", "osm_type": "node", "lat": -6.152934, "lon": 106.712303, "needs_manual_verify": true }, "geometry": { "type": "Point", "coordinates": [ 106.712303, -6.152934 ] } },
{ "type": "Feature", "properties": { "poi_id": "POI-HOS-11878686074", "name": "RS BHAKTI MULIA", "category": "hospital", "osm_id": "11878686074", "osm_type": "node", "lat": -6.1995871, "lon": 106.8005392, "needs_manual_verify": true }, "geometry": { "type": "Point", "coordinates": [ 106.8005392, -6.1995871 ] } },
{ "type": "Feature", "properties": { "poi_id": "POI-HOS-11878687400", "name": "RS ANGGREK MAS", "category": "hospital", "osm_id": "11878687400", "osm_type": "node", "lat": -6.2030307, "lon": 106.7726845, "needs_manual_verify": true }, "geometry": { "type": "Point", "coordinates": [ 106.7726845, -6.2030307 ] } },
{ "type": "Feature", "properties": { "poi_id": "POI-HOS-11878689318", "name": "RS ISLAM JAKARTA CEMPAKA PUTIH", "category": "hospital", "osm_id": "11878689318", "osm_type": "node", "lat": -6.1706549, "lon": 106.8708222, "needs_manual_verify": true }, "geometry": { "type": "Point", "coordinates": [ 106.8708222, -6.1706549 ] } },
{ "type": "Feature", "properties": { "poi_id": "POI-HOS-11878691259", "name": "RSUD CEMPAKA PUTIH", "category": "hospital", "osm_id": "11878691259", "osm_type": "node", "lat": -6.184668, "lon": 106.8723994, "needs_manual_verify": true }, "geometry": { "type": "Point", "coordinates": [ 106.8723994, -6.184668 ] } },
{ "type": "Feature", "properties": { "poi_id": "POI-HOS-11878691282", "name": "RS PELNI PETAMBURAN", "category": "hospital", "osm_id": "11878691282", "osm_type": "node", "lat": -6.1931924, "lon": 106.8036904, "needs_manual_verify": true }, "geometry": { "type": "Point", "coordinates": [ 106.8036904, -6.1931924 ] } },
{ "type": "Feature", "properties": { "poi_id": "POI-HOS-11878695701", "name": "RSUD JOHOR BARU", "category": "hospital", "osm_id": "11878695701", "osm_type": "node", "lat": -6.1818356, "lon": 106.8504657, "needs_manual_verify": true }, "geometry": { "type": "Point", "coordinates": [ 106.8504657, -6.1818356 ] } },
{ "type": "Feature", "properties": { "poi_id": "POI-HOS-11878695836", "name": "RS PRIMAYA PGI CIKINI", "category": "hospital", "osm_id": "11878695836", "osm_type": "node", "lat": -6.1914003, "lon": 106.8419064, "needs_manual_verify": true }, "geometry": { "type": "Point", "coordinates": [ 106.8419064, -6.1914003 ] } },
{ "type": "Feature", "properties": { "poi_id": "POI-HOS-11878701669", "name": "RS GRHA KEDOYA", "category": "hospital", "osm_id": "11878701669", "osm_type": "node", "lat": -6.1683669, "lon": 106.7651412, "needs_manual_verify": true }, "geometry": { "type": "Point", "coordinates": [ 106.7651412, -6.1683669 ] } },
{ "type": "Feature", "properties": { "poi_id": "POI-HOS-11878701671", "name": "RS MANUELA", "category": "hospital", "osm_id": "11878701671", "osm_type": "node", "lat": -6.1504414, "lon": 106.825941, "needs_manual_verify": true }, "geometry": { "type": "Point", "coordinates": [ 106.825941, -6.1504414 ] } },
{ "type": "Feature", "properties": { "poi_id": "POI-HOS-11878704833", "name": "RSUD ABDI WALUYO", "category": "hospital", "osm_id": "11878704833", "osm_type": "node", "lat": -6.1898118, "lon": 106.8293431, "needs_manual_verify": true }, "geometry": { "type": "Point", "coordinates": [ 106.8293431, -6.1898118 ] } },
{ "type": "Feature", "properties": { "poi_id": "POI-HOS-11878707065", "name": "RSUD TANAH ABANG", "category": "hospital", "osm_id": "11878707065", "osm_type": "node", "lat": -6.1910555, "lon": 106.8144549, "needs_manual_verify": true }, "geometry": { "type": "Point", "coordinates": [ 106.8144549, -6.1910555 ] } },
{ "type": "Feature", "properties": { "poi_id": "POI-HOS-11878707089", "name": "RSUD KEMAYORAN", "category": "hospital", "osm_id": "11878707089", "osm_type": "node", "lat": -6.1567123, "lon": 106.8637725, "needs_manual_verify": true }, "geometry": { "type": "Point", "coordinates": [ 106.8637725, -6.1567123 ] } },
{ "type": "Feature", "properties": { "poi_id": "POI-HOS-11878708199", "name": "RS PERTAMINA JAYA", "category": "hospital", "osm_id": "11878708199", "osm_type": "node", "lat": -6.1731387, "lon": 106.8758643, "needs_manual_verify": true }, "geometry": { "type": "Point", "coordinates": [ 106.8758643, -6.1731387 ] } },
{ "type": "Feature", "properties": { "poi_id": "POI-HOS-11878709433", "name": "RS PRIMAYA EVASARI", "category": "hospital", "osm_id": "11878709433", "osm_type": "node", "lat": -6.1935611, "lon": 106.8598631, "needs_manual_verify": true }, "geometry": { "type": "Point", "coordinates": [ 106.8598631, -6.1935611 ] } },
{ "type": "Feature", "properties": { "poi_id": "POI-HOS-11878716743", "name": "RSUD SAWAH BESAR", "category": "hospital", "osm_id": "11878716743", "osm_type": "node", "lat": -6.1489027, "lon": 106.8298217, "needs_manual_verify": true }, "geometry": { "type": "Point", "coordinates": [ 106.8298217, -6.1489027 ] } },
{ "type": "Feature", "properties": { "poi_id": "POI-HOS-11878718495", "name": "RS MITRA KELUARGA KEMAYORAN", "category": "hospital", "osm_id": "11878718495", "osm_type": "node", "lat": -6.1521122, "lon": 106.8585957, "needs_manual_verify": true }, "geometry": { "type": "Point", "coordinates": [ 106.8585957, -6.1521122 ] } },
{ "type": "Feature", "properties": { "poi_id": "POI-HOS-11878722409", "name": "RS ST. CAROLUS", "category": "hospital", "osm_id": "11878722409", "osm_type": "node", "lat": -6.1958347, "lon": 106.8517604, "needs_manual_verify": true }, "geometry": { "type": "Point", "coordinates": [ 106.8517604, -6.1958347 ] } },
{ "type": "Feature", "properties": { "poi_id": "POI-HOS-11878725578", "name": "RS HERMINA KEMAYORAN", "category": "hospital", "osm_id": "11878725578", "osm_type": "node", "lat": -6.1542245, "lon": 106.8456843, "needs_manual_verify": true }, "geometry": { "type": "Point", "coordinates": [ 106.8456843, -6.1542245 ] } },
{ "type": "Feature", "properties": { "poi_id": "POI-HOS-11878731552", "name": "RS RADJAK SALEMBA", "category": "hospital", "osm_id": "11878731552", "osm_type": "node", "lat": -6.1936527, "lon": 106.8520454, "needs_manual_verify": true }, "geometry": { "type": "Point", "coordinates": [ 106.8520454, -6.1936527 ] } },
{ "type": "Feature", "properties": { "poi_id": "POI-HOS-11878734766", "name": "RS KRAMAT 128", "category": "hospital", "osm_id": "11878734766", "osm_type": "node", "lat": -6.1856105, "lon": 106.8439659, "needs_manual_verify": true }, "geometry": { "type": "Point", "coordinates": [ 106.8439659, -6.1856105 ] } },
{ "type": "Feature", "properties": { "poi_id": "POI-HOS-11878742555", "name": "RSUD JAGAKARSA", "category": "hospital", "osm_id": "11878742555", "osm_type": "node", "lat": -6.3161758, "lon": 106.8113627, "needs_manual_verify": true }, "geometry": { "type": "Point", "coordinates": [ 106.8113627, -6.3161758 ] } },
{ "type": "Feature", "properties": { "poi_id": "POI-HOS-11878744028", "name": "RS MURNI TEGUH SUDIRMAN JAKARTA", "category": "hospital", "osm_id": "11878744028", "osm_type": "node", "lat": -6.2095279, "lon": 106.8193331, "needs_manual_verify": true }, "geometry": { "type": "Point", "coordinates": [ 106.8193331, -6.2095279 ] } },
{ "type": "Feature", "properties": { "poi_id": "POI-HOS-11878745952", "name": "RSUD PESANGGRAHAN", "category": "hospital", "osm_id": "11878745952", "osm_type": "node", "lat": -6.2581316, "lon": 106.7567132, "needs_manual_verify": true }, "geometry": { "type": "Point", "coordinates": [ 106.7567132, -6.2581316 ] } },
{ "type": "Feature", "properties": { "poi_id": "POI-HOS-11878753760", "name": "RSUD TEBET", "category": "hospital", "osm_id": "11878753760", "osm_type": "node", "lat": -6.2316371, "lon": 106.8466802, "needs_manual_verify": true }, "geometry": { "type": "Point", "coordinates": [ 106.8466802, -6.2316371 ] } },
{ "type": "Feature", "properties": { "poi_id": "POI-HOS-11878754351", "name": "RS HUSADA", "category": "hospital", "osm_id": "11878754351", "osm_type": "node", "lat": -6.1474995, "lon": 106.829499, "needs_manual_verify": true }, "geometry": { "type": "Point", "coordinates": [ 106.829499, -6.1474995 ] } },
{ "type": "Feature", "properties": { "poi_id": "POI-HOS-11878763169", "name": "RSUD JATI PADANG", "category": "hospital", "osm_id": "11878763169", "osm_type": "node", "lat": -6.2855018, "lon": 106.8423101, "needs_manual_verify": true }, "geometry": { "type": "Point", "coordinates": [ 106.8423101, -6.2855018 ] } },
{ "type": "Feature", "properties": { "poi_id": "POI-HOS-11878763188", "name": "RSUD KEBAYORAN LAMA", "category": "hospital", "osm_id": "11878763188", "osm_type": "node", "lat": -6.2487063, "lon": 106.785659, "needs_manual_verify": true }, "geometry": { "type": "Point", "coordinates": [ 106.785659, -6.2487063 ] } },
{ "type": "Feature", "properties": { "poi_id": "POI-HOS-11878766162", "name": "RSUD MAMPANG PRAPATAN", "category": "hospital", "osm_id": "11878766162", "osm_type": "node", "lat": -6.2404652, "lon": 106.8269643, "needs_manual_verify": true }, "geometry": { "type": "Point", "coordinates": [ 106.8269643, -6.2404652 ] } },
{ "type": "Feature", "properties": { "poi_id": "POI-HOS-11878847403", "name": "RS DR. SUTOYO PUSREHAB KEMHAN", "category": "hospital", "osm_id": "11878847403", "osm_type": "node", "lat": -6.2673998, "lon": 106.7666233, "needs_manual_verify": true }, "geometry": { "type": "Point", "coordinates": [ 106.7666233, -6.2673998 ] } },
{ "type": "Feature", "properties": { "poi_id": "POI-HOS-11878857367", "name": "RS PUSAT PERTAMINA", "category": "hospital", "osm_id": "11878857367", "osm_type": "node", "lat": -6.2401658, "lon": 106.7929683, "needs_manual_verify": true }, "geometry": { "type": "Point", "coordinates": [ 106.7929683, -6.2401658 ] } },
{ "type": "Feature", "properties": { "poi_id": "POI-HOS-11878857368", "name": "RS TEBET", "category": "hospital", "osm_id": "11878857368", "osm_type": "node", "lat": -6.2427408, "lon": 106.8501648, "needs_manual_verify": true }, "geometry": { "type": "Point", "coordinates": [ 106.8501648, -6.2427408 ] } },
{ "type": "Feature", "properties": { "poi_id": "POI-HOS-11878969542", "name": "RS SILOAM ASRI", "category": "hospital", "osm_id": "11878969542", "osm_type": "node", "lat": -6.254542, "lon": 106.8323327, "needs_manual_verify": true }, "geometry": { "type": "Point", "coordinates": [ 106.8323327, -6.254542 ] } },
{ "type": "Feature", "properties": { "poi_id": "POI-HOS-11878969544", "name": "RS SILOAM TB SIMATUPANG", "category": "hospital", "osm_id": "11878969544", "osm_type": "node", "lat": -6.2922458, "lon": 106.7843724, "needs_manual_verify": true }, "geometry": { "type": "Point", "coordinates": [ 106.7843724, -6.2922458 ] } },
{ "type": "Feature", "properties": { "poi_id": "POI-HOS-11879008132", "name": "RS METROPOLITAN MEDICAL CENTER (MMC) JAKARTA", "category": "hospital", "osm_id": "11879008132", "osm_type": "node", "lat": -6.2199712, "lon": 106.8324591, "needs_manual_verify": true }, "geometry": { "type": "Point", "coordinates": [ 106.8324591, -6.2199712 ] } },
{ "type": "Feature", "properties": { "poi_id": "POI-HOS-11879033486", "name": "RS BRAWIJAYA SAHARJO", "category": "hospital", "osm_id": "11879033486", "osm_type": "node", "lat": -6.2245705, "lon": 106.8480329, "needs_manual_verify": true }, "geometry": { "type": "Point", "coordinates": [ 106.8480329, -6.2245705 ] } },
{ "type": "Feature", "properties": { "poi_id": "POI-HOS-11879056884", "name": "RS AGUNG", "category": "hospital", "osm_id": "11879056884", "osm_type": "node", "lat": -6.2091793, "lon": 106.8463579, "needs_manual_verify": true }, "geometry": { "type": "Point", "coordinates": [ 106.8463579, -6.2091793 ] } },
{ "type": "Feature", "properties": { "poi_id": "POI-HOS-11879058895", "name": "RS JAKARTA MEDICAL CENTER", "category": "hospital", "osm_id": "11879058895", "osm_type": "node", "lat": -6.2713208, "lon": 106.8302102, "needs_manual_verify": true }, "geometry": { "type": "Point", "coordinates": [ 106.8302102, -6.2713208 ] } },
{ "type": "Feature", "properties": { "poi_id": "POI-HOS-11879062582", "name": "RS ALI SIBROH MALISI", "category": "hospital", "osm_id": "11879062582", "osm_type": "node", "lat": -6.3448144, "lon": 106.8138523, "needs_manual_verify": true }, "geometry": { "type": "Point", "coordinates": [ 106.8138523, -6.3448144 ] } },
{ "type": "Feature", "properties": { "poi_id": "POI-HOS-11879064202", "name": "RS HARAPAN KARTINI", "category": "hospital", "osm_id": "11879064202", "osm_type": "node", "lat": -6.2860998, "lon": 106.8159371, "needs_manual_verify": true }, "geometry": { "type": "Point", "coordinates": [ 106.8159371, -6.2860998 ] } },
{ "type": "Feature", "properties": { "poi_id": "POI-HOS-11879068354", "name": "RS GANDARIA", "category": "hospital", "osm_id": "11879068354", "osm_type": "node", "lat": -6.2439271, "lon": 106.7907444, "needs_manual_verify": true }, "geometry": { "type": "Point", "coordinates": [ 106.7907444, -6.2439271 ] } },
{ "type": "Feature", "properties": { "poi_id": "POI-HOS-11879068357", "name": "RS TRIA DIPA", "category": "hospital", "osm_id": "11879068357", "osm_type": "node", "lat": -6.250886, "lon": 106.8419482, "needs_manual_verify": true }, "geometry": { "type": "Point", "coordinates": [ 106.8419482, -6.250886 ] } },
{ "type": "Feature", "properties": { "poi_id": "POI-HOS-11879076104", "name": "RS MUHAMMADIYAH TAMAN PURING", "category": "hospital", "osm_id": "11879076104", "osm_type": "node", "lat": -6.2417055, "lon": 106.7871369, "needs_manual_verify": true }, "geometry": { "type": "Point", "coordinates": [ 106.7871369, -6.2417055 ] } },
{ "type": "Feature", "properties": { "poi_id": "POI-HOS-11879092538", "name": "RS AULIA", "category": "hospital", "osm_id": "11879092538", "osm_type": "node", "lat": -6.3345083, "lon": 106.8273883, "needs_manual_verify": true }, "geometry": { "type": "Point", "coordinates": [ 106.8273883, -6.3345083 ] } },
{ "type": "Feature", "properties": { "poi_id": "POI-HOS-11879094685", "name": "RS MARINIR CILANDAK", "category": "hospital", "osm_id": "11879094685", "osm_type": "node", "lat": -6.3048414, "lon": 106.810618, "needs_manual_verify": true }, "geometry": { "type": "Point", "coordinates": [ 106.810618, -6.3048414 ] } },
{ "type": "Feature", "properties": { "poi_id": "POI-HOS-11879101761", "name": "RS SETIA MITRA", "category": "hospital", "osm_id": "11879101761", "osm_type": "node", "lat": -6.2812583, "lon": 106.7958226, "needs_manual_verify": true }, "geometry": { "type": "Point", "coordinates": [ 106.7958226, -6.2812583 ] } },
{ "type": "Feature", "properties": { "poi_id": "POI-HOS-11879103257", "name": "RS PRIKASIH", "category": "hospital", "osm_id": "11879103257", "osm_type": "node", "lat": -6.3145283, "lon": 106.7941837, "needs_manual_verify": true }, "geometry": { "type": "Point", "coordinates": [ 106.7941837, -6.3145283 ] } },
{ "type": "Feature", "properties": { "poi_id": "POI-HOS-11879103566", "name": "RS MEDISTRA", "category": "hospital", "osm_id": "11879103566", "osm_type": "node", "lat": -6.2398422, "lon": 106.8336631, "needs_manual_verify": true }, "geometry": { "type": "Point", "coordinates": [ 106.8336631, -6.2398422 ] } },
{ "type": "Feature", "properties": { "poi_id": "POI-HOS-11879105317", "name": "RS ANTAM MEDIKA", "category": "hospital", "osm_id": "11879105317", "osm_type": "node", "lat": -6.192682, "lon": 106.9026992, "needs_manual_verify": true }, "geometry": { "type": "Point", "coordinates": [ 106.9026992, -6.192682 ] } },
{ "type": "Feature", "properties": { "poi_id": "POI-HOS-11879105876", "name": "RS Petukangan", "category": "hospital", "osm_id": "11879105876", "osm_type": "node", "lat": -6.2368522, "lon": 106.7517244, "needs_manual_verify": true }, "geometry": { "type": "Point", "coordinates": [ 106.7517244, -6.2368522 ] } },
{ "type": "Feature", "properties": { "poi_id": "POI-HOS-11879105877", "name": "RS PONDOK INDAH", "category": "hospital", "osm_id": "11879105877", "osm_type": "node", "lat": -6.2838411, "lon": 106.7815932, "needs_manual_verify": true }, "geometry": { "type": "Point", "coordinates": [ 106.7815932, -6.2838411 ] } },
{ "type": "Feature", "properties": { "poi_id": "POI-HOS-11879111685", "name": "RSUD KRAMAT JATI", "category": "hospital", "osm_id": "11879111685", "osm_type": "node", "lat": -6.2868679, "lon": 106.8622797, "needs_manual_verify": true }, "geometry": { "type": "Point", "coordinates": [ 106.8622797, -6.2868679 ] } },
{ "type": "Feature", "properties": { "poi_id": "POI-HOS-11879111687", "name": "RS HAJI JAKARTA", "category": "hospital", "osm_id": "11879111687", "osm_type": "node", "lat": -6.2898814, "lon": 106.8891492, "needs_manual_verify": true }, "geometry": { "type": "Point", "coordinates": [ 106.8891492, -6.2898814 ] } },
{ "type": "Feature", "properties": { "poi_id": "POI-HOS-11879114083", "name": "RSUD CIRACAS", "category": "hospital", "osm_id": "11879114083", "osm_type": "node", "lat": -6.3455971, "lon": 106.8738712, "needs_manual_verify": true }, "geometry": { "type": "Point", "coordinates": [ 106.8738712, -6.3455971 ] } },
{ "type": "Feature", "properties": { "poi_id": "POI-HOS-11879117977", "name": "RSUD MATRAMAN", "category": "hospital", "osm_id": "11879117977", "osm_type": "node", "lat": -6.2062623, "lon": 106.8660138, "needs_manual_verify": true }, "geometry": { "type": "Point", "coordinates": [ 106.8660138, -6.2062623 ] } },
{ "type": "Feature", "properties": { "poi_id": "POI-HOS-11879120264", "name": "RS YADIKA KEBAYORAN LAMA", "category": "hospital", "osm_id": "11879120264", "osm_type": "node", "lat": -6.2550734, "lon": 106.7777289, "needs_manual_verify": true }, "geometry": { "type": "Point", "coordinates": [ 106.7777289, -6.2550734 ] } },
{ "type": "Feature", "properties": { "poi_id": "POI-HOS-11879121418", "name": "RSUD PASAR REBO", "category": "hospital", "osm_id": "11879121418", "osm_type": "node", "lat": -6.3033892, "lon": 106.8618752, "needs_manual_verify": true }, "geometry": { "type": "Point", "coordinates": [ 106.8618752, -6.3033892 ] } },
{ "type": "Feature", "properties": { "poi_id": "POI-HOS-11879123942", "name": "RSUD BUDHI ASIH", "category": "hospital", "osm_id": "11879123942", "osm_type": "node", "lat": -6.2560273, "lon": 106.862978, "needs_manual_verify": true }, "geometry": { "type": "Point", "coordinates": [ 106.862978, -6.2560273 ] } },
{ "type": "Feature", "properties": { "poi_id": "POI-HOS-11879124001", "name": "RS BHAYANGKARA RADEN SAID SUKANTO", "category": "hospital", "osm_id": "11879124001", "osm_type": "node", "lat": -6.2696092, "lon": 106.8711147, "needs_manual_verify": true }, "geometry": { "type": "Point", "coordinates": [ 106.8711147, -6.2696092 ] } },
{ "type": "Feature", "properties": { "poi_id": "POI-HOS-11879128229", "name": "RS RIDWAN MOREKSA", "category": "hospital", "osm_id": "11879128229", "osm_type": "node", "lat": -6.2942592, "lon": 106.8825824, "needs_manual_verify": true }, "geometry": { "type": "Point", "coordinates": [ 106.8825824, -6.2942592 ] } },
{ "type": "Feature", "properties": { "poi_id": "POI-HOS-11879129277", "name": "RS ADHYAKSA", "category": "hospital", "osm_id": "11879129277", "osm_type": "node", "lat": -6.3078316, "lon": 106.8927312, "needs_manual_verify": true }, "geometry": { "type": "Point", "coordinates": [ 106.8927312, -6.3078316 ] } },
{ "type": "Feature", "properties": { "poi_id": "POI-HOS-11879129531", "name": "RS YADIKA PONDOK BAMBU", "category": "hospital", "osm_id": "11879129531", "osm_type": "node", "lat": -6.2371953, "lon": 106.8991335, "needs_manual_verify": true }, "geometry": { "type": "Point", "coordinates": [ 106.8991335, -6.2371953 ] } },
{ "type": "Feature", "properties": { "poi_id": "POI-HOS-11879130107", "name": "RS HERMINA JATINEGARA", "category": "hospital", "osm_id": "11879130107", "osm_type": "node", "lat": -6.2215235, "lon": 106.8644361, "needs_manual_verify": true }, "geometry": { "type": "Point", "coordinates": [ 106.8644361, -6.2215235 ] } },
{ "type": "Feature", "properties": { "poi_id": "POI-HOS-11879131879", "name": "RS HARAPAN BUNDA", "category": "hospital", "osm_id": "11879131879", "osm_type": "node", "lat": -6.3029512, "lon": 106.8680213, "needs_manual_verify": true }, "geometry": { "type": "Point", "coordinates": [ 106.8680213, -6.3029512 ] } },
{ "type": "Feature", "properties": { "poi_id": "POI-HOS-11879134331", "name": "RS DHARMA NUGRAHA", "category": "hospital", "osm_id": "11879134331", "osm_type": "node", "lat": -6.1960084, "lon": 106.8863978, "needs_manual_verify": true }, "geometry": { "type": "Point", "coordinates": [ 106.8863978, -6.1960084 ] } },
{ "type": "Feature", "properties": { "poi_id": "POI-HOS-11879136526", "name": "RS HARAPAN JAYAKARTA", "category": "hospital", "osm_id": "11879136526", "osm_type": "node", "lat": -6.1948769, "lon": 106.9062814, "needs_manual_verify": true }, "geometry": { "type": "Point", "coordinates": [ 106.9062814, -6.1948769 ] } },
{ "type": "Feature", "properties": { "poi_id": "POI-HOS-11879139983", "name": "RS KESDAM JAYA CIJANTUNG", "category": "hospital", "osm_id": "11879139983", "osm_type": "node", "lat": -6.3073687, "lon": 106.8589442, "needs_manual_verify": true }, "geometry": { "type": "Point", "coordinates": [ 106.8589442, -6.3073687 ] } },
{ "type": "Feature", "properties": { "poi_id": "POI-HOS-11879140461", "name": "RS ISLAM JAKARTA PONDOK KOPI", "category": "hospital", "osm_id": "11879140461", "osm_type": "node", "lat": -6.2200191, "lon": 106.9396181, "needs_manual_verify": true }, "geometry": { "type": "Point", "coordinates": [ 106.9396181, -6.2200191 ] } },
{ "type": "Feature", "properties": { "poi_id": "POI-HOS-11879140742", "name": "RSUD PADEMANGAN", "category": "hospital", "osm_id": "11879140742", "osm_type": "node", "lat": -6.1328308, "lon": 106.8402507, "needs_manual_verify": true }, "geometry": { "type": "Point", "coordinates": [ 106.8402507, -6.1328308 ] } },
{ "type": "Feature", "properties": { "poi_id": "POI-HOS-11879142776", "name": "RS KARTIKA PULOMAS", "category": "hospital", "osm_id": "11879142776", "osm_type": "node", "lat": -6.1759668, "lon": 106.8848922, "needs_manual_verify": true }, "geometry": { "type": "Point", "coordinates": [ 106.8848922, -6.1759668 ] } },
{ "type": "Feature", "properties": { "poi_id": "POI-HOS-11879145123", "name": "RSUD TANJUNG PRIOK", "category": "hospital", "osm_id": "11879145123", "osm_type": "node", "lat": -6.116082, "lon": 106.8888254, "needs_manual_verify": true }, "geometry": { "type": "Point", "coordinates": [ 106.8888254, -6.116082 ] } },
{ "type": "Feature", "properties": { "poi_id": "POI-HOS-11879149960", "name": "RS HARUM SISMA MEDIKA", "category": "hospital", "osm_id": "11879149960", "osm_type": "node", "lat": -6.2481403, "lon": 106.9096007, "needs_manual_verify": true }, "geometry": { "type": "Point", "coordinates": [ 106.9096007, -6.2481403 ] } },
{ "type": "Feature", "properties": { "poi_id": "POI-HOS-11879152935", "name": "RS EMC PULOMAS", "category": "hospital", "osm_id": "11879152935", "osm_type": "node", "lat": -6.1802378, "lon": 106.8837433, "needs_manual_verify": true }, "geometry": { "type": "Point", "coordinates": [ 106.8837433, -6.1802378 ] } },
{ "type": "Feature", "properties": { "poi_id": "POI-HOS-11879157183", "name": "RS PENGAYOMAN CIPINANG", "category": "hospital", "osm_id": "11879157183", "osm_type": "node", "lat": -6.2149417, "lon": 106.8837596, "needs_manual_verify": true }, "geometry": { "type": "Point", "coordinates": [ 106.8837596, -6.2149417 ] } },
{ "type": "Feature", "properties": { "poi_id": "POI-HOS-11879160224", "name": "RS MEDIROS", "category": "hospital", "osm_id": "11879160224", "osm_type": "node", "lat": -6.1798914, "lon": 106.9036994, "needs_manual_verify": true }, "geometry": { "type": "Point", "coordinates": [ 106.9036994, -6.1798914 ] } },
{ "type": "Feature", "properties": { "poi_id": "POI-HOS-11879166703", "name": "RSUD CILINCING", "category": "hospital", "osm_id": "11879166703", "osm_type": "node", "lat": -6.112986, "lon": 106.9262566, "needs_manual_verify": true }, "geometry": { "type": "Point", "coordinates": [ 106.9262566, -6.112986 ] } },
{ "type": "Feature", "properties": { "poi_id": "POI-HOS-11879166704", "name": "RSUD KOJA", "category": "hospital", "osm_id": "11879166704", "osm_type": "node", "lat": -6.1089322, "lon": 106.8996682, "needs_manual_verify": true }, "geometry": { "type": "Point", "coordinates": [ 106.8996682, -6.1089322 ] } },
{ "type": "Feature", "properties": { "poi_id": "POI-HOS-11879166705", "name": "RS DUTA INDAH", "category": "hospital", "osm_id": "11879166705", "osm_type": "node", "lat": -6.1384133, "lon": 106.7837975, "needs_manual_verify": true }, "geometry": { "type": "Point", "coordinates": [ 106.7837975, -6.1384133 ] } },
{ "type": "Feature", "properties": { "poi_id": "POI-HOS-11879169364", "name": "RS PELABUHAN JAKARTA", "category": "hospital", "osm_id": "11879169364", "osm_type": "node", "lat": -6.1249202, "lon": 106.9178262, "needs_manual_verify": true }, "geometry": { "type": "Point", "coordinates": [ 106.9178262, -6.1249202 ] } },
{ "type": "Feature", "properties": { "poi_id": "POI-HOS-11879170165", "name": "RS PUSDIKKES", "category": "hospital", "osm_id": "11879170165", "osm_type": "node", "lat": -6.276816, "lon": 106.8694697, "needs_manual_verify": true }, "geometry": { "type": "Point", "coordinates": [ 106.8694697, -6.276816 ] } },
{ "type": "Feature", "properties": { "poi_id": "POI-HOS-11879171288", "name": "RS ROYAL PROGRESS", "category": "hospital", "osm_id": "11879171288", "osm_type": "node", "lat": -6.1394322, "lon": 106.865455, "needs_manual_verify": true }, "geometry": { "type": "Point", "coordinates": [ 106.865455, -6.1394322 ] } },
{ "type": "Feature", "properties": { "poi_id": "POI-HOS-11879175999", "name": "RSUD TUGU KOJA", "category": "hospital", "osm_id": "11879175999", "osm_type": "node", "lat": -6.1274896, "lon": 106.906859, "needs_manual_verify": true }, "geometry": { "type": "Point", "coordinates": [ 106.906859, -6.1274896 ] } },
{ "type": "Feature", "properties": { "poi_id": "POI-HOS-11879176030", "name": "RS HERMINA PODOMORO", "category": "hospital", "osm_id": "11879176030", "osm_type": "node", "lat": -6.1455694, "lon": 106.8613627, "needs_manual_verify": true }, "geometry": { "type": "Point", "coordinates": [ 106.8613627, -6.1455694 ] } },
{ "type": "Feature", "properties": { "poi_id": "POI-HOS-11879176491", "name": "RS ATMA JAYA", "category": "hospital", "osm_id": "11879176491", "osm_type": "node", "lat": -6.1264458, "lon": 106.7926902, "needs_manual_verify": true }, "geometry": { "type": "Point", "coordinates": [ 106.7926902, -6.1264458 ] } },
{ "type": "Feature", "properties": { "poi_id": "POI-HOS-11879177881", "name": "RS PURI MEDIKA", "category": "hospital", "osm_id": "11879177881", "osm_type": "node", "lat": -6.1291818, "lon": 106.890191, "needs_manual_verify": true }, "geometry": { "type": "Point", "coordinates": [ 106.890191, -6.1291818 ] } },
{ "type": "Feature", "properties": { "poi_id": "POI-HOS-11879184355", "name": "RS MITRA KELUARGA KELAPA GADING", "category": "hospital", "osm_id": "11879184355", "osm_type": "node", "lat": -6.1518139, "lon": 106.89704, "needs_manual_verify": true }, "geometry": { "type": "Point", "coordinates": [ 106.89704, -6.1518139 ] } },
{ "type": "Feature", "properties": { "poi_id": "POI-HOS-11879186328", "name": "RS ISLAM JAKARTA SUKAPURA", "category": "hospital", "osm_id": "11879186328", "osm_type": "node", "lat": -6.1397437, "lon": 106.9208253, "needs_manual_verify": true }, "geometry": { "type": "Point", "coordinates": [ 106.9208253, -6.1397437 ] } },
{ "type": "Feature", "properties": { "poi_id": "POI-HOS-11879197294", "name": "RS SUKMUL SISMA MEDIKA", "category": "hospital", "osm_id": "11879197294", "osm_type": "node", "lat": -6.1120721, "lon": 106.8820012, "needs_manual_verify": true }, "geometry": { "type": "Point", "coordinates": [ 106.8820012, -6.1120721 ] } },
{ "type": "Feature", "properties": { "poi_id": "POI-HOS-11879199228", "name": "RS PLUIT", "category": "hospital", "osm_id": "11879199228", "osm_type": "node", "lat": -6.1257296, "lon": 106.7994919, "needs_manual_verify": true }, "geometry": { "type": "Point", "coordinates": [ 106.7994919, -6.1257296 ] } },
{ "type": "Feature", "properties": { "poi_id": "POI-HOS-11879200350", "name": "RS SATYA NEGARA", "category": "hospital", "osm_id": "11879200350", "osm_type": "node", "lat": -6.1388457, "lon": 106.8615552, "needs_manual_verify": true }, "geometry": { "type": "Point", "coordinates": [ 106.8615552, -6.1388457 ] } },
{ "type": "Feature", "properties": { "poi_id": "POI-HOS-11879215369", "name": "RS ZAHIRAH", "category": "hospital", "osm_id": "11879215369", "osm_type": "node", "lat": -6.3357413, "lon": 106.8235642, "needs_manual_verify": true }, "geometry": { "type": "Point", "coordinates": [ 106.8235642, -6.3357413 ] } },
{ "type": "Feature", "properties": { "poi_id": "POI-HOS-12160069752", "name": "RSUD Tangerang Selatan", "category": "hospital", "osm_id": "12160069752", "osm_type": "node", "lat": -6.3379705, "lon": 106.7390851, "needs_manual_verify": true }, "geometry": { "type": "Point", "coordinates": [ 106.7390851, -6.3379705 ] } },
{ "type": "Feature", "properties": { "poi_id": "POI-HOS-12662436214", "name": "RSUD Cileungsi", "category": "hospital", "osm_id": "12662436214", "osm_type": "node", "lat": -6.4329076, "lon": 107.0485916, "needs_manual_verify": true }, "geometry": { "type": "Point", "coordinates": [ 107.0485916, -6.4329076 ] } },
{ "type": "Feature", "properties": { "poi_id": "POI-HOS-12799035787", "name": "rumah sakit", "category": "hospital", "osm_id": "12799035787", "osm_type": "node", "lat": -6.6479926, "lon": 106.8600159, "needs_manual_verify": true }, "geometry": { "type": "Point", "coordinates": [ 106.8600159, -6.6479926 ] } },
{ "type": "Feature", "properties": { "poi_id": "POI-HOS-12927593517", "name": "RS Helsa Jatirahayu", "category": "hospital", "osm_id": "12927593517", "osm_type": "node", "lat": -6.296209, "lon": 106.9210449, "needs_manual_verify": true }, "geometry": { "type": "Point", "coordinates": [ 106.9210449, -6.296209 ] } },
{ "type": "Feature", "properties": { "poi_id": "POI-HOS-13269995401", "name": "RS Murni Asih", "category": "hospital", "osm_id": "13269995401", "osm_type": "node", "lat": -6.2544702, "lon": 106.6079852, "needs_manual_verify": true }, "geometry": { "type": "Point", "coordinates": [ 106.6079852, -6.2544702 ] } },
{ "type": "Feature", "properties": { "poi_id": "POI-HOS-119503317", "name": "RS Sukmul Sisma Medika", "category": "hospital", "osm_id": "119503317", "osm_type": "way", "lat": -6.1120749, "lon": 106.8819941, "needs_manual_verify": true }, "geometry": { "type": "Point", "coordinates": [ 106.8819941, -6.1120749 ] } },
{ "type": "Feature", "properties": { "poi_id": "POI-HOS-119724159", "name": "Rumah Sakit Tugu Ibu", "category": "hospital", "osm_id": "119724159", "osm_type": "way", "lat": -6.3564889, "lon": 106.8604938, "needs_manual_verify": true }, "geometry": { "type": "Point", "coordinates": [ 106.8604938, -6.3564889 ] } },
{ "type": "Feature", "properties": { "poi_id": "POI-HOS-119913162", "name": "Rumah Sakit Cijantung", "category": "hospital", "osm_id": "119913162", "osm_type": "way", "lat": -6.3074662, "lon": 106.8588999, "needs_manual_verify": true }, "geometry": { "type": "Point", "coordinates": [ 106.8588999, -6.3074662 ] } },
{ "type": "Feature", "properties": { "poi_id": "POI-HOS-120184483", "name": "Rumah Sakit Harum Sisma Medika", "category": "hospital", "osm_id": "120184483", "osm_type": "way", "lat": -6.2481335, "lon": 106.9096278, "needs_manual_verify": true }, "geometry": { "type": "Point", "coordinates": [ 106.9096278, -6.2481335 ] } },
{ "type": "Feature", "properties": { "poi_id": "POI-HOS-120495770", "name": "Rumah Sakit Bersalin Bidara Mulia", "category": "hospital", "osm_id": "120495770", "osm_type": "way", "lat": -6.2306521, "lon": 106.8669761, "needs_manual_verify": true }, "geometry": { "type": "Point", "coordinates": [ 106.8669761, -6.2306521 ] } },
{ "type": "Feature", "properties": { "poi_id": "POI-HOS-121129268", "name": "Rumah Sakit MMC", "category": "hospital", "osm_id": "121129268", "osm_type": "way", "lat": -6.2199172, "lon": 106.8324139, "needs_manual_verify": true }, "geometry": { "type": "Point", "coordinates": [ 106.8324139, -6.2199172 ] } },
{ "type": "Feature", "properties": { "poi_id": "POI-HOS-121195900", "name": "Rumah Sakit Umum UKI", "category": "hospital", "osm_id": "121195900", "osm_type": "way", "lat": -6.2508359, "lon": 106.8724368, "needs_manual_verify": true }, "geometry": { "type": "Point", "coordinates": [ 106.8724368, -6.2508359 ] } },
{ "type": "Feature", "properties": { "poi_id": "POI-HOS-121261419", "name": "Rumah Sakit Hewan Jakarta", "category": "hospital", "osm_id": "121261419", "osm_type": "way", "lat": -6.2990985, "lon": 106.8196995, "needs_manual_verify": true }, "geometry": { "type": "Point", "coordinates": [ 106.8196995, -6.2990985 ] } },
{ "type": "Feature", "properties": { "poi_id": "POI-HOS-121802687", "name": "Rumah Sakit Ibu dan Anak Asta Nugraha", "category": "hospital", "osm_id": "121802687", "osm_type": "way", "lat": -6.2215123, "lon": 106.9147916, "needs_manual_verify": true }, "geometry": { "type": "Point", "coordinates": [ 106.9147916, -6.2215123 ] } },
{ "type": "Feature", "properties": { "poi_id": "POI-HOS-122152269", "name": "RS Murni Teguh Sudirman Jakarta", "category": "hospital", "osm_id": "122152269", "osm_type": "way", "lat": -6.2094632, "lon": 106.8195335, "needs_manual_verify": true }, "geometry": { "type": "Point", "coordinates": [ 106.8195335, -6.2094632 ] } },
{ "type": "Feature", "properties": { "poi_id": "POI-HOS-124163125", "name": "Rumah Sakit Jakarta", "category": "hospital", "osm_id": "124163125", "osm_type": "way", "lat": -6.2185961, "lon": 106.8163304, "needs_manual_verify": true }, "geometry": { "type": "Point", "coordinates": [ 106.8163304, -6.2185961 ] } },
{ "type": "Feature", "properties": { "poi_id": "POI-HOS-141357115", "name": "Rumah Sakit Bhayangkara", "category": "hospital", "osm_id": "141357115", "osm_type": "way", "lat": -6.596599, "lon": 106.7912029, "needs_manual_verify": true }, "geometry": { "type": "Point", "coordinates": [ 106.7912029, -6.596599 ] } },
{ "type": "Feature", "properties": { "poi_id": "POI-HOS-142508383", "name": "RS Marzuki Mahdi", "category": "hospital", "osm_id": "142508383", "osm_type": "way", "lat": -6.5824661, "lon": 106.7800975, "needs_manual_verify": true }, "geometry": { "type": "Point", "coordinates": [ 106.7800975, -6.5824661 ] } },
{ "type": "Feature", "properties": { "poi_id": "POI-HOS-142616948", "name": "RSUD Kota Bogor", "category": "hospital", "osm_id": "142616948", "osm_type": "way", "lat": -6.5804016, "lon": 106.7783005, "needs_manual_verify": true }, "geometry": { "type": "Point", "coordinates": [ 106.7783005, -6.5804016 ] } },
{ "type": "Feature", "properties": { "poi_id": "POI-HOS-153303478", "name": "RSUD Pasar Rebo", "category": "hospital", "osm_id": "153303478", "osm_type": "way", "lat": -6.3035975, "lon": 106.8620935, "needs_manual_verify": true }, "geometry": { "type": "Point", "coordinates": [ 106.8620935, -6.3035975 ] } },
{ "type": "Feature", "properties": { "poi_id": "POI-HOS-153318583", "name": "Rumah Sakit Umum Persahabatan", "category": "hospital", "osm_id": "153318583", "osm_type": "way", "lat": -6.2047966, "lon": 106.8842734, "needs_manual_verify": true }, "geometry": { "type": "Point", "coordinates": [ 106.8842734, -6.2047966 ] } },
{ "type": "Feature", "properties": { "poi_id": "POI-HOS-154830418", "name": "Rumah Sakit Pluit", "category": "hospital", "osm_id": "154830418", "osm_type": "way", "lat": -6.1257361, "lon": 106.7994863, "needs_manual_verify": true }, "geometry": { "type": "Point", "coordinates": [ 106.7994863, -6.1257361 ] } },
{ "type": "Feature", "properties": { "poi_id": "POI-HOS-154835529", "name": "RS Gading Pluit", "category": "hospital", "osm_id": "154835529", "osm_type": "way", "lat": -6.1661784, "lon": 106.9160662, "needs_manual_verify": true }, "geometry": { "type": "Point", "coordinates": [ 106.9160662, -6.1661784 ] } },
{ "type": "Feature", "properties": { "poi_id": "POI-HOS-155097709", "name": "Rumah Sakit Radjak Salemba", "category": "hospital", "osm_id": "155097709", "osm_type": "way", "lat": -6.1936543, "lon": 106.8520926, "needs_manual_verify": true }, "geometry": { "type": "Point", "coordinates": [ 106.8520926, -6.1936543 ] } },
{ "type": "Feature", "properties": { "poi_id": "POI-HOS-155097743", "name": "Rumah Sakit Umum Kecamatan Sawah Besar", "category": "hospital", "osm_id": "155097743", "osm_type": "way", "lat": -6.1489007, "lon": 106.829821, "needs_manual_verify": true }, "geometry": { "type": "Point", "coordinates": [ 106.829821, -6.1489007 ] } },
{ "type": "Feature", "properties": { "poi_id": "POI-HOS-155098189", "name": "Rumah Sakit Khusus THT dan Bedah Kepala Leher Proklamasi", "category": "hospital", "osm_id": "155098189", "osm_type": "way", "lat": -6.2018877, "lon": 106.8472497, "needs_manual_verify": true }, "geometry": { "type": "Point", "coordinates": [ 106.8472497, -6.2018877 ] } },
{ "type": "Feature", "properties": { "poi_id": "POI-HOS-155109641", "name": "Evasari Rumah Sakit Awal BROS Group", "category": "hospital", "osm_id": "155109641", "osm_type": "way", "lat": -6.1935524, "lon": 106.8597557, "needs_manual_verify": true }, "geometry": { "type": "Point", "coordinates": [ 106.8597557, -6.1935524 ] } },
{ "type": "Feature", "properties": { "poi_id": "POI-HOS-155110654", "name": "Rumah Sakit Umum Kecamatan Cempaka Putih", "category": "hospital", "osm_id": "155110654", "osm_type": "way", "lat": -6.1846854, "lon": 106.8723951, "needs_manual_verify": true }, "geometry": { "type": "Point", "coordinates": [ 106.8723951, -6.1846854 ] } },
{ "type": "Feature", "properties": { "poi_id": "POI-HOS-155115812", "name": "Rumah Sakit Gigi dan Mulut Ladokgi TNI AL R.E Martadinata", "category": "hospital", "osm_id": "155115812", "osm_type": "way", "lat": -6.2114473, "lon": 106.8087207, "needs_manual_verify": true }, "geometry": { "type": "Point", "coordinates": [ 106.8087207, -6.2114473 ] } },
{ "type": "Feature", "properties": { "poi_id": "POI-HOS-155115832", "name": "Rumah Sakit Dr Mintohardjo", "category": "hospital", "osm_id": "155115832", "osm_type": "way", "lat": -6.2108675, "lon": 106.8108281, "needs_manual_verify": true }, "geometry": { "type": "Point", "coordinates": [ 106.8108281, -6.2108675 ] } },
{ "type": "Feature", "properties": { "poi_id": "POI-HOS-155409007", "name": "Rumah Sakit Bhineka Bakti Husada", "category": "hospital", "osm_id": "155409007", "osm_type": "way", "lat": -6.3463553, "lon": 106.7504504, "needs_manual_verify": true }, "geometry": { "type": "Point", "coordinates": [ 106.7504504, -6.3463553 ] } },
{ "type": "Feature", "properties": { "poi_id": "POI-HOS-155931564", "name": "RS Premier Jatinegara", "category": "hospital", "osm_id": "155931564", "osm_type": "way", "lat": -6.2216906, "lon": 106.8688366, "needs_manual_verify": true }, "geometry": { "type": "Point", "coordinates": [ 106.8688366, -6.2216906 ] } },
{ "type": "Feature", "properties": { "poi_id": "POI-HOS-155936712", "name": "Rumah Sakit Umum Adhyaksa", "category": "hospital", "osm_id": "155936712", "osm_type": "way", "lat": -6.3078333, "lon": 106.8927101, "needs_manual_verify": true }, "geometry": { "type": "Point", "coordinates": [ 106.8927101, -6.3078333 ] } },
{ "type": "Feature", "properties": { "poi_id": "POI-HOS-155947535", "name": "Rumah Sakit Omni", "category": "hospital", "osm_id": "155947535", "osm_type": "way", "lat": -6.1803165, "lon": 106.883958, "needs_manual_verify": true }, "geometry": { "type": "Point", "coordinates": [ 106.883958, -6.1803165 ] } },
{ "type": "Feature", "properties": { "poi_id": "POI-HOS-155947536", "name": "Rumah Sakit Kartika Pulo Mas", "category": "hospital", "osm_id": "155947536", "osm_type": "way", "lat": -6.1759621, "lon": 106.884906, "needs_manual_verify": true }, "geometry": { "type": "Point", "coordinates": [ 106.884906, -6.1759621 ] } },
{ "type": "Feature", "properties": { "poi_id": "POI-HOS-155948488", "name": "Rumah Sakit Islam Jiwa Jakarta", "category": "hospital", "osm_id": "155948488", "osm_type": "way", "lat": -6.221861, "lon": 106.9330896, "needs_manual_verify": true }, "geometry": { "type": "Point", "coordinates": [ 106.9330896, -6.221861 ] } },
{ "type": "Feature", "properties": { "poi_id": "POI-HOS-155951286", "name": "Rumah Sakit Ibu dan Anak Restu Kasih", "category": "hospital", "osm_id": "155951286", "osm_type": "way", "lat": -6.2650891, "lon": 106.8664545, "needs_manual_verify": true }, "geometry": { "type": "Point", "coordinates": [ 106.8664545, -6.2650891 ] } },
{ "type": "Feature", "properties": { "poi_id": "POI-HOS-155955548", "name": "RSUD Duren Sawit : Instalasi Kedaruratan Emosi dan Perilaku", "category": "hospital", "osm_id": "155955548", "osm_type": "way", "lat": -6.2311393, "lon": 106.9086019, "needs_manual_verify": true }, "geometry": { "type": "Point", "coordinates": [ 106.9086019, -6.2311393 ] } },
{ "type": "Feature", "properties": { "poi_id": "POI-HOS-156909663", "name": "Rumah Sakit Umum Ibnu Sina", "category": "hospital", "osm_id": "156909663", "osm_type": "way", "lat": -6.1604079, "lon": 106.7960677, "needs_manual_verify": true }, "geometry": { "type": "Point", "coordinates": [ 106.7960677, -6.1604079 ] } },
{ "type": "Feature", "properties": { "poi_id": "POI-HOS-156917856", "name": "Rumah Sakit Umum Taman Sari", "category": "hospital", "osm_id": "156917856", "osm_type": "way", "lat": -6.1437715, "lon": 106.8192284, "needs_manual_verify": true }, "geometry": { "type": "Point", "coordinates": [ 106.8192284, -6.1437715 ] } },
{ "type": "Feature", "properties": { "poi_id": "POI-HOS-156919180", "name": "RS Patria IKKT", "category": "hospital", "osm_id": "156919180", "osm_type": "way", "lat": -6.197305, "lon": 106.7926195, "needs_manual_verify": true }, "geometry": { "type": "Point", "coordinates": [ 106.7926195, -6.197305 ] } },
{ "type": "Feature", "properties": { "poi_id": "POI-HOS-156919546", "name": "Rumah Sakit Ibu dan Anak Aries", "category": "hospital", "osm_id": "156919546", "osm_type": "way", "lat": -6.1576321, "lon": 106.8099989, "needs_manual_verify": true }, "geometry": { "type": "Point", "coordinates": [ 106.8099989, -6.1576321 ] } },
{ "type": "Feature", "properties": { "poi_id": "POI-HOS-156928888", "name": "Rumah Sakit Pelni Petamburan", "category": "hospital", "osm_id": "156928888", "osm_type": "way", "lat": -6.1932311, "lon": 106.8037259, "needs_manual_verify": true }, "geometry": { "type": "Point", "coordinates": [ 106.8037259, -6.1932311 ] } },
{ "type": "Feature", "properties": { "poi_id": "POI-HOS-156928913", "name": "RS Bhakti Mulia", "category": "hospital", "osm_id": "156928913", "osm_type": "way", "lat": -6.1995786, "lon": 106.8006181, "needs_manual_verify": true }, "geometry": { "type": "Point", "coordinates": [ 106.8006181, -6.1995786 ] } },
{ "type": "Feature", "properties": { "poi_id": "POI-HOS-157204608", "name": "Rumah Sakit Bersalin Dokter Sanusi", "category": "hospital", "osm_id": "157204608", "osm_type": "way", "lat": -6.2029947, "lon": 106.7731462, "needs_manual_verify": true }, "geometry": { "type": "Point", "coordinates": [ 106.7731462, -6.2029947 ] } },
{ "type": "Feature", "properties": { "poi_id": "POI-HOS-157211723", "name": "Rumah Sakit Ibu dan Anak Resti Mulya", "category": "hospital", "osm_id": "157211723", "osm_type": "way", "lat": -6.2087559, "lon": 106.941783, "needs_manual_verify": true }, "geometry": { "type": "Point", "coordinates": [ 106.941783, -6.2087559 ] } },
{ "type": "Feature", "properties": { "poi_id": "POI-HOS-157344203", "name": "RSUD Mampang Prapatan", "category": "hospital", "osm_id": "157344203", "osm_type": "way", "lat": -6.2404906, "lon": 106.8270049, "needs_manual_verify": true }, "geometry": { "type": "Point", "coordinates": [ 106.8270049, -6.2404906 ] } },
{ "type": "Feature", "properties": { "poi_id": "POI-HOS-157357100", "name": "RSUD Kebayoran Lama", "category": "hospital", "osm_id": "157357100", "osm_type": "way", "lat": -6.2486524, "lon": 106.7856024, "needs_manual_verify": true }, "geometry": { "type": "Point", "coordinates": [ 106.7856024, -6.2486524 ] } },
{ "type": "Feature", "properties": { "poi_id": "POI-HOS-157358477", "name": "Rumah Sakit Khusus Bedah Halimun", "category": "hospital", "osm_id": "157358477", "osm_type": "way", "lat": -6.2062097, "lon": 106.8340764, "needs_manual_verify": true }, "geometry": { "type": "Point", "coordinates": [ 106.8340764, -6.2062097 ] } },
{ "type": "Feature", "properties": { "poi_id": "POI-HOS-157362678", "name": "Rumah Sakit Umum Kecamatan Tebet", "category": "hospital", "osm_id": "157362678", "osm_type": "way", "lat": -6.2316306, "lon": 106.8466818, "needs_manual_verify": true }, "geometry": { "type": "Point", "coordinates": [ 106.8466818, -6.2316306 ] } },
{ "type": "Feature", "properties": { "poi_id": "POI-HOS-168234696", "name": "RS Juliana", "category": "hospital", "osm_id": "168234696", "osm_type": "way", "lat": -6.6282325, "lon": 106.823634, "needs_manual_verify": true }, "geometry": { "type": "Point", "coordinates": [ 106.823634, -6.6282325 ] } },
{ "type": "Feature", "properties": { "poi_id": "POI-HOS-174132866", "name": "Rumah Sakit Rawamangun", "category": "hospital", "osm_id": "174132866", "osm_type": "way", "lat": -6.1963359, "lon": 106.8854695, "needs_manual_verify": true }, "geometry": { "type": "Point", "coordinates": [ 106.8854695, -6.1963359 ] } },
{ "type": "Feature", "properties": { "poi_id": "POI-HOS-176279014", "name": "RS Hermina Bogor", "category": "hospital", "osm_id": "176279014", "osm_type": "way", "lat": -6.5575221, "lon": 106.7739545, "needs_manual_verify": true }, "geometry": { "type": "Point", "coordinates": [ 106.7739545, -6.5575221 ] } },
{ "type": "Feature", "properties": { "poi_id": "POI-HOS-176770279", "name": "Rumah Sakit Mayapada Kuningan", "category": "hospital", "osm_id": "176770279", "osm_type": "way", "lat": -6.2185187, "lon": 106.8318722, "needs_manual_verify": true }, "geometry": { "type": "Point", "coordinates": [ 106.8318722, -6.2185187 ] } },
{ "type": "Feature", "properties": { "poi_id": "POI-HOS-190131314", "name": "RS Vania", "category": "hospital", "osm_id": "190131314", "osm_type": "way", "lat": -6.6128544, "lon": 106.8079855, "needs_manual_verify": true }, "geometry": { "type": "Point", "coordinates": [ 106.8079855, -6.6128544 ] } },
{ "type": "Feature", "properties": { "poi_id": "POI-HOS-218838822", "name": "Rumah Sakit Tria Dipa", "category": "hospital", "osm_id": "218838822", "osm_type": "way", "lat": -6.2508431, "lon": 106.8419704, "needs_manual_verify": true }, "geometry": { "type": "Point", "coordinates": [ 106.8419704, -6.2508431 ] } },
{ "type": "Feature", "properties": { "poi_id": "POI-HOS-225103500", "name": "Rumah Sakit Puri Cinere", "category": "hospital", "osm_id": "225103500", "osm_type": "way", "lat": -6.3215171, "lon": 106.7828172, "needs_manual_verify": true }, "geometry": { "type": "Point", "coordinates": [ 106.7828172, -6.3215171 ] } },
{ "type": "Feature", "properties": { "poi_id": "POI-HOS-227762674", "name": "Rumah Sakit Mitra Keluarga Bekasi Timur", "category": "hospital", "osm_id": "227762674", "osm_type": "way", "lat": -6.2605419, "lon": 107.0133128, "needs_manual_verify": true }, "geometry": { "type": "Point", "coordinates": [ 107.0133128, -6.2605419 ] } },
{ "type": "Feature", "properties": { "poi_id": "POI-HOS-249665587", "name": "Rumah Sakit Cinta Kasih Tzu Chi", "category": "hospital", "osm_id": "249665587", "osm_type": "way", "lat": -6.1320482, "lon": 106.7370952, "needs_manual_verify": true }, "geometry": { "type": "Point", "coordinates": [ 106.7370952, -6.1320482 ] } },
{ "type": "Feature", "properties": { "poi_id": "POI-HOS-258733740", "name": "RSUD dr. Chasbullah Abdul Majid Kota Bekasi", "category": "hospital", "osm_id": "258733740", "osm_type": "way", "lat": -6.24216, "lon": 107.0015524, "needs_manual_verify": true }, "geometry": { "type": "Point", "coordinates": [ 107.0015524, -6.24216 ] } },
{ "type": "Feature", "properties": { "poi_id": "POI-HOS-277762806", "name": "RS Paru Dr. M. Goenawan Partowidigdo", "category": "hospital", "osm_id": "277762806", "osm_type": "way", "lat": -6.6882128, "lon": 106.939556, "needs_manual_verify": true }, "geometry": { "type": "Point", "coordinates": [ 106.939556, -6.6882128 ] } },
{ "type": "Feature", "properties": { "poi_id": "POI-HOS-300734979", "name": "Rumah Sakit Sofa Marwa", "category": "hospital", "osm_id": "300734979", "osm_type": "way", "lat": -6.3555381, "lon": 106.8199834, "needs_manual_verify": true }, "geometry": { "type": "Point", "coordinates": [ 106.8199834, -6.3555381 ] } },
{ "type": "Feature", "properties": { "poi_id": "POI-HOS-308709336", "name": "RS Citra Medika", "category": "hospital", "osm_id": "308709336", "osm_type": "way", "lat": -6.4272743, "lon": 106.823244, "needs_manual_verify": true }, "geometry": { "type": "Point", "coordinates": [ 106.823244, -6.4272743 ] } },
{ "type": "Feature", "properties": { "poi_id": "POI-HOS-319318384", "name": "Rumah Sakit Mekarsari", "category": "hospital", "osm_id": "319318384", "osm_type": "way", "lat": -6.2329764, "lon": 107.0105954, "needs_manual_verify": true }, "geometry": { "type": "Point", "coordinates": [ 107.0105954, -6.2329764 ] } },
{ "type": "Feature", "properties": { "poi_id": "POI-HOS-333352799", "name": "Rumah Sakit", "category": "hospital", "osm_id": "333352799", "osm_type": "way", "lat": -6.4323072, "lon": 106.7339587, "needs_manual_verify": true }, "geometry": { "type": "Point", "coordinates": [ 106.7339587, -6.4323072 ] } },
{ "type": "Feature", "properties": { "poi_id": "POI-HOS-334982120", "name": "Rumah Sakit Umum & Pekerja", "category": "hospital", "osm_id": "334982120", "osm_type": "way", "lat": -6.1455012, "lon": 106.923865, "needs_manual_verify": true }, "geometry": { "type": "Point", "coordinates": [ 106.923865, -6.1455012 ] } },
{ "type": "Feature", "properties": { "poi_id": "POI-HOS-387754444", "name": "Rumah Sakit Elisabeth", "category": "hospital", "osm_id": "387754444", "osm_type": "way", "lat": -6.2760904, "lon": 106.9910962, "needs_manual_verify": true }, "geometry": { "type": "Point", "coordinates": [ 106.9910962, -6.2760904 ] } },
{ "type": "Feature", "properties": { "poi_id": "POI-HOS-387756125", "name": "Rumah Sakit Rawalumbu", "category": "hospital", "osm_id": "387756125", "osm_type": "way", "lat": -6.2806855, "lon": 106.9989585, "needs_manual_verify": true }, "geometry": { "type": "Point", "coordinates": [ 106.9989585, -6.2806855 ] } },
{ "type": "Feature", "properties": { "poi_id": "POI-HOS-454014924", "name": "RS Jantung Jakarta", "category": "hospital", "osm_id": "454014924", "osm_type": "way", "lat": -6.2001801, "lon": 106.8553878, "needs_manual_verify": true }, "geometry": { "type": "Point", "coordinates": [ 106.8553878, -6.2001801 ] } },
{ "type": "Feature", "properties": { "poi_id": "POI-HOS-479410765", "name": "RS Hermina Bitung", "category": "hospital", "osm_id": "479410765", "osm_type": "way", "lat": -6.2216866, "lon": 106.5625722, "needs_manual_verify": true }, "geometry": { "type": "Point", "coordinates": [ 106.5625722, -6.2216866 ] } },
{ "type": "Feature", "properties": { "poi_id": "POI-HOS-482154808", "name": "RS Hermina Jatinegara", "category": "hospital", "osm_id": "482154808", "osm_type": "way", "lat": -6.2212375, "lon": 106.8647139, "needs_manual_verify": true }, "geometry": { "type": "Point", "coordinates": [ 106.8647139, -6.2212375 ] } },
{ "type": "Feature", "properties": { "poi_id": "POI-HOS-482346450", "name": "Rumah Sakit Bedah Bina Estetika", "category": "hospital", "osm_id": "482346450", "osm_type": "way", "lat": -6.1991941, "lon": 106.8375324, "needs_manual_verify": true }, "geometry": { "type": "Point", "coordinates": [ 106.8375324, -6.1991941 ] } },
{ "type": "Feature", "properties": { "poi_id": "POI-HOS-482346485", "name": "Rumah Sakit Mata JEC", "category": "hospital", "osm_id": "482346485", "osm_type": "way", "lat": -6.1986006, "lon": 106.8368349, "needs_manual_verify": true }, "geometry": { "type": "Point", "coordinates": [ 106.8368349, -6.1986006 ] } },
{ "type": "Feature", "properties": { "poi_id": "POI-HOS-482414704", "name": "Rumah Sakit Umum Al Fauzan", "category": "hospital", "osm_id": "482414704", "osm_type": "way", "lat": -6.2995986, "lon": 106.8690857, "needs_manual_verify": true }, "geometry": { "type": "Point", "coordinates": [ 106.8690857, -6.2995986 ] } },
{ "type": "Feature", "properties": { "poi_id": "POI-HOS-483382036", "name": "RS K", "category": "hospital", "osm_id": "483382036", "osm_type": "way", "lat": -6.2020346, "lon": 106.8468714, "needs_manual_verify": true }, "geometry": { "type": "Point", "coordinates": [ 106.8468714, -6.2020346 ] } },
{ "type": "Feature", "properties": { "poi_id": "POI-HOS-483648323", "name": "Rumah Sakit Umum Daerah Budi Asih", "category": "hospital", "osm_id": "483648323", "osm_type": "way", "lat": -6.2558465, "lon": 106.8630464, "needs_manual_verify": true }, "geometry": { "type": "Point", "coordinates": [ 106.8630464, -6.2558465 ] } },
{ "type": "Feature", "properties": { "poi_id": "POI-HOS-485074669", "name": "Rumah Sakit Siloam", "category": "hospital", "osm_id": "485074669", "osm_type": "way", "lat": -6.21909, "lon": 106.8171913, "needs_manual_verify": true }, "geometry": { "type": "Point", "coordinates": [ 106.8171913, -6.21909 ] } },
{ "type": "Feature", "properties": { "poi_id": "POI-HOS-485298952", "name": "Rumah Sakit Ibu Dan Anak Brawijaya Duren Tiga", "category": "hospital", "osm_id": "485298952", "osm_type": "way", "lat": -6.253289, "lon": 106.8411934, "needs_manual_verify": true }, "geometry": { "type": "Point", "coordinates": [ 106.8411934, -6.253289 ] } },
{ "type": "Feature", "properties": { "poi_id": "POI-HOS-485813873", "name": "Rumah Sakit YPK Mandiri", "category": "hospital", "osm_id": "485813873", "osm_type": "way", "lat": -6.1913149, "lon": 106.8278537, "needs_manual_verify": true }, "geometry": { "type": "Point", "coordinates": [ 106.8278537, -6.1913149 ] } },
{ "type": "Feature", "properties": { "poi_id": "POI-HOS-485813973", "name": "Rumah Sakit Abdi Waluyo", "category": "hospital", "osm_id": "485813973", "osm_type": "way", "lat": -6.1898132, "lon": 106.8293587, "needs_manual_verify": true }, "geometry": { "type": "Point", "coordinates": [ 106.8293587, -6.1898132 ] } },
{ "type": "Feature", "properties": { "poi_id": "POI-HOS-485827839", "name": "RSUD Johar Baru", "category": "hospital", "osm_id": "485827839", "osm_type": "way", "lat": -6.1818294, "lon": 106.8504636, "needs_manual_verify": true }, "geometry": { "type": "Point", "coordinates": [ 106.8504636, -6.1818294 ] } },
{ "type": "Feature", "properties": { "poi_id": "POI-HOS-485992308", "name": "Rumah Sakit Menteng Mitra Afia", "category": "hospital", "osm_id": "485992308", "osm_type": "way", "lat": -6.1868538, "lon": 106.8384083, "needs_manual_verify": true }, "geometry": { "type": "Point", "coordinates": [ 106.8384083, -6.1868538 ] } },
{ "type": "Feature", "properties": { "poi_id": "POI-HOS-487295990", "name": "Rumah Sakit Ibu dan Anak Budhi Jaya", "category": "hospital", "osm_id": "487295990", "osm_type": "way", "lat": -6.218954, "lon": 106.8449439, "needs_manual_verify": true }, "geometry": { "type": "Point", "coordinates": [ 106.8449439, -6.218954 ] } },
{ "type": "Feature", "properties": { "poi_id": "POI-HOS-488197083", "name": "Rumah Sakit Tebet", "category": "hospital", "osm_id": "488197083", "osm_type": "way", "lat": -6.2425785, "lon": 106.8501822, "needs_manual_verify": true }, "geometry": { "type": "Point", "coordinates": [ 106.8501822, -6.2425785 ] } },
{ "type": "Feature", "properties": { "poi_id": "POI-HOS-488404220", "name": "Rumah Sakit PGI CIKINI", "category": "hospital", "osm_id": "488404220", "osm_type": "way", "lat": -6.1913911, "lon": 106.8418202, "needs_manual_verify": true }, "geometry": { "type": "Point", "coordinates": [ 106.8418202, -6.1913911 ] } },
{ "type": "Feature", "properties": { "poi_id": "POI-HOS-488434301", "name": "Rumah Sakit Bersalin Elshama", "category": "hospital", "osm_id": "488434301", "osm_type": "way", "lat": -6.2817889, "lon": 106.8715226, "needs_manual_verify": true }, "geometry": { "type": "Point", "coordinates": [ 106.8715226, -6.2817889 ] } },
{ "type": "Feature", "properties": { "poi_id": "POI-HOS-488436069", "name": "Rumah Sakit Umum Pengayoman", "category": "hospital", "osm_id": "488436069", "osm_type": "way", "lat": -6.2155914, "lon": 106.8837973, "needs_manual_verify": true }, "geometry": { "type": "Point", "coordinates": [ 106.8837973, -6.2155914 ] } },
{ "type": "Feature", "properties": { "poi_id": "POI-HOS-488480763", "name": "Rumah Sakit Harapan Jayakarta", "category": "hospital", "osm_id": "488480763", "osm_type": "way", "lat": -6.1950006, "lon": 106.9058521, "needs_manual_verify": true }, "geometry": { "type": "Point", "coordinates": [ 106.9058521, -6.1950006 ] } },
{ "type": "Feature", "properties": { "poi_id": "POI-HOS-489236891", "name": "RS Hermina Kemayoran", "category": "hospital", "osm_id": "489236891", "osm_type": "way", "lat": -6.1542962, "lon": 106.845645, "needs_manual_verify": true }, "geometry": { "type": "Point", "coordinates": [ 106.845645, -6.1542962 ] } },
{ "type": "Feature", "properties": { "poi_id": "POI-HOS-489532008", "name": "RSUD Matraman", "category": "hospital", "osm_id": "489532008", "osm_type": "way", "lat": -6.206244, "lon": 106.8660168, "needs_manual_verify": true }, "geometry": { "type": "Point", "coordinates": [ 106.8660168, -6.206244 ] } },
{ "type": "Feature", "properties": { "poi_id": "POI-HOS-489540663", "name": "Rumah Sakit Umum Kramat Jati", "category": "hospital", "osm_id": "489540663", "osm_type": "way", "lat": -6.2868559, "lon": 106.8623328, "needs_manual_verify": true }, "geometry": { "type": "Point", "coordinates": [ 106.8623328, -6.2868559 ] } },
{ "type": "Feature", "properties": { "poi_id": "POI-HOS-490060230", "name": "Rumah Sakit Jakarta Medical Center", "category": "hospital", "osm_id": "490060230", "osm_type": "way", "lat": -6.27138, "lon": 106.8302149, "needs_manual_verify": true }, "geometry": { "type": "Point", "coordinates": [ 106.8302149, -6.27138 ] } },
{ "type": "Feature", "properties": { "poi_id": "POI-HOS-490985587", "name": "Rumah Sakit Graha Medika", "category": "hospital", "osm_id": "490985587", "osm_type": "way", "lat": -6.5647497, "lon": 106.7617167, "needs_manual_verify": true }, "geometry": { "type": "Point", "coordinates": [ 106.7617167, -6.5647497 ] } },
{ "type": "Feature", "properties": { "poi_id": "POI-HOS-491033065", "name": "Rumah Sakit Siloam ASRI", "category": "hospital", "osm_id": "491033065", "osm_type": "way", "lat": -6.2545615, "lon": 106.8324121, "needs_manual_verify": true }, "geometry": { "type": "Point", "coordinates": [ 106.8324121, -6.2545615 ] } },
{ "type": "Feature", "properties": { "poi_id": "POI-HOS-491242356", "name": "Rumah Sakit St. Carolus", "category": "hospital", "osm_id": "491242356", "osm_type": "way", "lat": -6.1955802, "lon": 106.8515231, "needs_manual_verify": true }, "geometry": { "type": "Point", "coordinates": [ 106.8515231, -6.1955802 ] } },
{ "type": "Feature", "properties": { "poi_id": "POI-HOS-491244198", "name": "Rumah Sakit Cipto Mangunkusumo", "category": "hospital", "osm_id": "491244198", "osm_type": "way", "lat": -6.1971484, "lon": 106.8471306, "needs_manual_verify": true }, "geometry": { "type": "Point", "coordinates": [ 106.8471306, -6.1971484 ] } },
{ "type": "Feature", "properties": { "poi_id": "POI-HOS-492535915", "name": "RSUD Tarakan", "category": "hospital", "osm_id": "492535915", "osm_type": "way", "lat": -6.1716313, "lon": 106.8103422, "needs_manual_verify": true }, "geometry": { "type": "Point", "coordinates": [ 106.8103422, -6.1716313 ] } },
{ "type": "Feature", "properties": { "poi_id": "POI-HOS-492945012", "name": "Rumah Sakit Umum Kecamatan Tanah Abang", "category": "hospital", "osm_id": "492945012", "osm_type": "way", "lat": -6.1909714, "lon": 106.8143546, "needs_manual_verify": true }, "geometry": { "type": "Point", "coordinates": [ 106.8143546, -6.1909714 ] } },
{ "type": "Feature", "properties": { "poi_id": "POI-HOS-492989001", "name": "Rumah Sakit Islam Jakarta", "category": "hospital", "osm_id": "492989001", "osm_type": "way", "lat": -6.1712857, "lon": 106.8713153, "needs_manual_verify": true }, "geometry": { "type": "Point", "coordinates": [ 106.8713153, -6.1712857 ] } },
{ "type": "Feature", "properties": { "poi_id": "POI-HOS-493574020", "name": "Rumah Sakit Pondok Indah", "category": "hospital", "osm_id": "493574020", "osm_type": "way", "lat": -6.1861872, "lon": 106.7354015, "needs_manual_verify": true }, "geometry": { "type": "Point", "coordinates": [ 106.7354015, -6.1861872 ] } },
{ "type": "Feature", "properties": { "poi_id": "POI-HOS-495395057", "name": "Rumah Sakit Kanker \"Dharmais\"", "category": "hospital", "osm_id": "495395057", "osm_type": "way", "lat": -6.1867845, "lon": 106.7980146, "needs_manual_verify": true }, "geometry": { "type": "Point", "coordinates": [ 106.7980146, -6.1867845 ] } },
{ "type": "Feature", "properties": { "poi_id": "POI-HOS-495415697", "name": "Rumah Sakit Kramat 128", "category": "hospital", "osm_id": "495415697", "osm_type": "way", "lat": -6.1855639, "lon": 106.8440404, "needs_manual_verify": true }, "geometry": { "type": "Point", "coordinates": [ 106.8440404, -6.1855639 ] } },
{ "type": "Feature", "properties": { "poi_id": "POI-HOS-496643326", "name": "Rumah Sakit THT Bedah Prof. Nizar", "category": "hospital", "osm_id": "496643326", "osm_type": "way", "lat": -6.1712414, "lon": 106.8154247, "needs_manual_verify": true }, "geometry": { "type": "Point", "coordinates": [ 106.8154247, -6.1712414 ] } },
{ "type": "Feature", "properties": { "poi_id": "POI-HOS-496806581", "name": "RS Khusus Mata SMECO Jakarta", "category": "hospital", "osm_id": "496806581", "osm_type": "way", "lat": -6.1927314, "lon": 106.8827041, "needs_manual_verify": true }, "geometry": { "type": "Point", "coordinates": [ 106.8827041, -6.1927314 ] } },
{ "type": "Feature", "properties": { "poi_id": "POI-HOS-498439150", "name": "Rumah Sakit Mata Primasana", "category": "hospital", "osm_id": "498439150", "osm_type": "way", "lat": -6.1142804, "lon": 106.8897867, "needs_manual_verify": true }, "geometry": { "type": "Point", "coordinates": [ 106.8897867, -6.1142804 ] } },
{ "type": "Feature", "properties": { "poi_id": "POI-HOS-499215974", "name": "Rumah Sakit Ketergantungan Obat (RSKO) Jakarta", "category": "hospital", "osm_id": "499215974", "osm_type": "way", "lat": -6.3469069, "lon": 106.8724458, "needs_manual_verify": true }, "geometry": { "type": "Point", "coordinates": [ 106.8724458, -6.3469069 ] } },
{ "type": "Feature", "properties": { "poi_id": "POI-HOS-499215999", "name": "RSUD Ciracas", "category": "hospital", "osm_id": "499215999", "osm_type": "way", "lat": -6.345676, "lon": 106.8738909, "needs_manual_verify": true }, "geometry": { "type": "Point", "coordinates": [ 106.8738909, -6.345676 ] } },
{ "type": "Feature", "properties": { "poi_id": "POI-HOS-499829935", "name": "RS Ridhoka Salma", "category": "hospital", "osm_id": "499829935", "osm_type": "way", "lat": -6.2693374, "lon": 107.1211273, "needs_manual_verify": true }, "geometry": { "type": "Point", "coordinates": [ 107.1211273, -6.2693374 ] } },
{ "type": "Feature", "properties": { "poi_id": "POI-HOS-500025512", "name": "Rumah Sakit Moh. Ridwan Meuraksa", "category": "hospital", "osm_id": "500025512", "osm_type": "way", "lat": -6.2944252, "lon": 106.8827153, "needs_manual_verify": true }, "geometry": { "type": "Point", "coordinates": [ 106.8827153, -6.2944252 ] } },
{ "type": "Feature", "properties": { "poi_id": "POI-HOS-500052290", "name": "RS Bersalin Rosa Kartika", "category": "hospital", "osm_id": "500052290", "osm_type": "way", "lat": -6.3278755, "lon": 106.822765, "needs_manual_verify": true }, "geometry": { "type": "Point", "coordinates": [ 106.822765, -6.3278755 ] } },
{ "type": "Feature", "properties": { "poi_id": "POI-HOS-500082522", "name": "Rumah Sakit Olahraga Nasional", "category": "hospital", "osm_id": "500082522", "osm_type": "way", "lat": -6.3685476, "lon": 106.8927658, "needs_manual_verify": true }, "geometry": { "type": "Point", "coordinates": [ 106.8927658, -6.3685476 ] } },
{ "type": "Feature", "properties": { "poi_id": "POI-HOS-500184659", "name": "RS Permata Keluarga", "category": "hospital", "osm_id": "500184659", "osm_type": "way", "lat": -6.3313375, "lon": 107.1434777, "needs_manual_verify": true }, "geometry": { "type": "Point", "coordinates": [ 107.1434777, -6.3313375 ] } },
{ "type": "Feature", "properties": { "poi_id": "POI-HOS-500577009", "name": "RS Medika Permata Hijau", "category": "hospital", "osm_id": "500577009", "osm_type": "way", "lat": -6.2182019, "lon": 106.7778424, "needs_manual_verify": true }, "geometry": { "type": "Point", "coordinates": [ 106.7778424, -6.2182019 ] } },
{ "type": "Feature", "properties": { "poi_id": "POI-HOS-500647932", "name": "Rumah Sakit Hermina Daan Mogot", "category": "hospital", "osm_id": "500647932", "osm_type": "way", "lat": -6.1529364, "lon": 106.7123058, "needs_manual_verify": true }, "geometry": { "type": "Point", "coordinates": [ 106.7123058, -6.1529364 ] } },
{ "type": "Feature", "properties": { "poi_id": "POI-HOS-500836758", "name": "RSUD Kecamatan Kemayoran", "category": "hospital", "osm_id": "500836758", "osm_type": "way", "lat": -6.1566769, "lon": 106.8637808, "needs_manual_verify": true }, "geometry": { "type": "Point", "coordinates": [ 106.8637808, -6.1566769 ] } },
{ "type": "Feature", "properties": { "poi_id": "POI-HOS-501104603", "name": "Rumah Sakit Seto Hasbadi", "category": "hospital", "osm_id": "501104603", "osm_type": "way", "lat": -6.2020325, "lon": 106.9888393, "needs_manual_verify": true }, "geometry": { "type": "Point", "coordinates": [ 106.9888393, -6.2020325 ] } },
{ "type": "Feature", "properties": { "poi_id": "POI-HOS-502025435", "name": "RSUD Jati Padang", "category": "hospital", "osm_id": "502025435", "osm_type": "way", "lat": -6.2854869, "lon": 106.8423285, "needs_manual_verify": true }, "geometry": { "type": "Point", "coordinates": [ 106.8423285, -6.2854869 ] } },
{ "type": "Feature", "properties": { "poi_id": "POI-HOS-502320209", "name": "RS Ananda Tambun Selatan", "category": "hospital", "osm_id": "502320209", "osm_type": "way", "lat": -6.27143, "lon": 107.0262438, "needs_manual_verify": true }, "geometry": { "type": "Point", "coordinates": [ 107.0262438, -6.27143 ] } },
{ "type": "Feature", "properties": { "poi_id": "POI-HOS-503262103", "name": "RS Permata Jonggol", "category": "hospital", "osm_id": "503262103", "osm_type": "way", "lat": -6.4383206, "lon": 107.0535641, "needs_manual_verify": true }, "geometry": { "type": "Point", "coordinates": [ 107.0535641, -6.4383206 ] } },
{ "type": "Feature", "properties": { "poi_id": "POI-HOS-505424728", "name": "RS Permata Depok", "category": "hospital", "osm_id": "505424728", "osm_type": "way", "lat": -6.4016681, "lon": 106.7702506, "needs_manual_verify": true }, "geometry": { "type": "Point", "coordinates": [ 106.7702506, -6.4016681 ] } },
{ "type": "Feature", "properties": { "poi_id": "POI-HOS-506663668", "name": "RS Islam Jakarta Pondok Kopi", "category": "hospital", "osm_id": "506663668", "osm_type": "way", "lat": -6.2202593, "lon": 106.9401576, "needs_manual_verify": true }, "geometry": { "type": "Point", "coordinates": [ 106.9401576, -6.2202593 ] } },
{ "type": "Feature", "properties": { "poi_id": "POI-HOS-506895845", "name": "RS Ibu dan Anak Andhika", "category": "hospital", "osm_id": "506895845", "osm_type": "way", "lat": -6.3442499, "lon": 106.8143056, "needs_manual_verify": true }, "geometry": { "type": "Point", "coordinates": [ 106.8143056, -6.3442499 ] } },
{ "type": "Feature", "properties": { "poi_id": "POI-HOS-507486831", "name": "Rumah Sakit Umum Daerah Kalideres", "category": "hospital", "osm_id": "507486831", "osm_type": "way", "lat": -6.1268441, "lon": 106.7039992, "needs_manual_verify": true }, "geometry": { "type": "Point", "coordinates": [ 106.7039992, -6.1268441 ] } },
{ "type": "Feature", "properties": { "poi_id": "POI-HOS-508130705", "name": "Rumah Sakit Bersalin Anggrek Mas", "category": "hospital", "osm_id": "508130705", "osm_type": "way", "lat": -6.2030303, "lon": 106.7726837, "needs_manual_verify": true }, "geometry": { "type": "Point", "coordinates": [ 106.7726837, -6.2030303 ] } },
{ "type": "Feature", "properties": { "poi_id": "POI-HOS-508918547", "name": "Rumah Sakit Umum Kecamatan Jagakarsa", "category": "hospital", "osm_id": "508918547", "osm_type": "way", "lat": -6.3161814, "lon": 106.811358, "needs_manual_verify": true }, "geometry": { "type": "Point", "coordinates": [ 106.811358, -6.3161814 ] } },
{ "type": "Feature", "properties": { "poi_id": "POI-HOS-508918843", "name": "RS Aulia", "category": "hospital", "osm_id": "508918843", "osm_type": "way", "lat": -6.3345587, "lon": 106.8271626, "needs_manual_verify": true }, "geometry": { "type": "Point", "coordinates": [ 106.8271626, -6.3345587 ] } },
{ "type": "Feature", "properties": { "poi_id": "POI-HOS-509813981", "name": "Rumah Sakit Ibu Anak dr. Euis", "category": "hospital", "osm_id": "509813981", "osm_type": "way", "lat": -6.2454991, "lon": 106.9428319, "needs_manual_verify": true }, "geometry": { "type": "Point", "coordinates": [ 106.9428319, -6.2454991 ] } },
{ "type": "Feature", "properties": { "poi_id": "POI-HOS-510416128", "name": "Rumah Sakit Husada", "category": "hospital", "osm_id": "510416128", "osm_type": "way", "lat": -6.1463661, "lon": 106.8291005, "needs_manual_verify": true }, "geometry": { "type": "Point", "coordinates": [ 106.8291005, -6.1463661 ] } },
{ "type": "Feature", "properties": { "poi_id": "POI-HOS-510968265", "name": "Rumah Sakit Marinir Cilandak", "category": "hospital", "osm_id": "510968265", "osm_type": "way", "lat": -6.3048255, "lon": 106.8104899, "needs_manual_verify": true }, "geometry": { "type": "Point", "coordinates": [ 106.8104899, -6.3048255 ] } },
{ "type": "Feature", "properties": { "poi_id": "POI-HOS-511014020", "name": "RS Ali Sibroh Malisi", "category": "hospital", "osm_id": "511014020", "osm_type": "way", "lat": -6.344684, "lon": 106.8139234, "needs_manual_verify": true }, "geometry": { "type": "Point", "coordinates": [ 106.8139234, -6.344684 ] } },
{ "type": "Feature", "properties": { "poi_id": "POI-HOS-511178888", "name": "Rumah Sakit Bina Sehat Mandiri", "category": "hospital", "osm_id": "511178888", "osm_type": "way", "lat": -6.1856008, "lon": 106.771464, "needs_manual_verify": true }, "geometry": { "type": "Point", "coordinates": [ 106.771464, -6.1856008 ] } },
{ "type": "Feature", "properties": { "poi_id": "POI-HOS-511186795", "name": "RS Ukrida Duri Kepa", "category": "hospital", "osm_id": "511186795", "osm_type": "way", "lat": -6.1851702, "lon": 106.7808057, "needs_manual_verify": true }, "geometry": { "type": "Point", "coordinates": [ 106.7808057, -6.1851702 ] } },
{ "type": "Feature", "properties": { "poi_id": "POI-HOS-511210788", "name": "Rumah Sakit Jantung Binawaluya", "category": "hospital", "osm_id": "511210788", "osm_type": "way", "lat": -6.3079579, "lon": 106.8708721, "needs_manual_verify": true }, "geometry": { "type": "Point", "coordinates": [ 106.8708721, -6.3079579 ] } },
{ "type": "Feature", "properties": { "poi_id": "POI-HOS-511269098", "name": "Rumah Sakit Duren Sawit", "category": "hospital", "osm_id": "511269098", "osm_type": "way", "lat": -6.2318975, "lon": 106.9094221, "needs_manual_verify": true }, "geometry": { "type": "Point", "coordinates": [ 106.9094221, -6.2318975 ] } },
{ "type": "Feature", "properties": { "poi_id": "POI-HOS-512761969", "name": "Rumah Sakit Harapan Bunda", "category": "hospital", "osm_id": "512761969", "osm_type": "way", "lat": -6.3030271, "lon": 106.8680514, "needs_manual_verify": true }, "geometry": { "type": "Point", "coordinates": [ 106.8680514, -6.3030271 ] } },
{ "type": "Feature", "properties": { "poi_id": "POI-HOS-513191029", "name": "RS Grha Kedoya", "category": "hospital", "osm_id": "513191029", "osm_type": "way", "lat": -6.168127, "lon": 106.7648571, "needs_manual_verify": true }, "geometry": { "type": "Point", "coordinates": [ 106.7648571, -6.168127 ] } },
{ "type": "Feature", "properties": { "poi_id": "POI-HOS-513565284", "name": "Rumah Sakit Umum Pusat Fatmawati", "category": "hospital", "osm_id": "513565284", "osm_type": "way", "lat": -6.2952467, "lon": 106.7962661, "needs_manual_verify": true }, "geometry": { "type": "Point", "coordinates": [ 106.7962661, -6.2952467 ] } },
{ "type": "Feature", "properties": { "poi_id": "POI-HOS-514074371", "name": "Rumah Sakit Port Medical Center", "category": "hospital", "osm_id": "514074371", "osm_type": "way", "lat": -6.1104012, "lon": 106.8893894, "needs_manual_verify": true }, "geometry": { "type": "Point", "coordinates": [ 106.8893894, -6.1104012 ] } },
{ "type": "Feature", "properties": { "poi_id": "POI-HOS-514454612", "name": "RS Sanatorium Dharmawangsa", "category": "hospital", "osm_id": "514454612", "osm_type": "way", "lat": -6.2550316, "lon": 106.8028009, "needs_manual_verify": true }, "geometry": { "type": "Point", "coordinates": [ 106.8028009, -6.2550316 ] } },
{ "type": "Feature", "properties": { "poi_id": "POI-HOS-514464730", "name": "RSUD Kebayoran Baru", "category": "hospital", "osm_id": "514464730", "osm_type": "way", "lat": -6.2655205, "lon": 106.7986583, "needs_manual_verify": true }, "geometry": { "type": "Point", "coordinates": [ 106.7986583, -6.2655205 ] } },
{ "type": "Feature", "properties": { "poi_id": "POI-HOS-514677663", "name": "RS Puri Medika", "category": "hospital", "osm_id": "514677663", "osm_type": "way", "lat": -6.1291989, "lon": 106.8901851, "needs_manual_verify": true }, "geometry": { "type": "Point", "coordinates": [ 106.8901851, -6.1291989 ] } },
{ "type": "Feature", "properties": { "poi_id": "POI-HOS-514698253", "name": "RS Hermina PIK 2", "category": "hospital", "osm_id": "514698253", "osm_type": "way", "lat": -6.058639, "lon": 106.6797682, "needs_manual_verify": true }, "geometry": { "type": "Point", "coordinates": [ 106.6797682, -6.058639 ] } },
{ "type": "Feature", "properties": { "poi_id": "POI-HOS-515753829", "name": "RS Khusus THT- Bedah Ciranjang", "category": "hospital", "osm_id": "515753829", "osm_type": "way", "lat": -6.2367123, "lon": 106.811307, "needs_manual_verify": true }, "geometry": { "type": "Point", "coordinates": [ 106.811307, -6.2367123 ] } },
{ "type": "Feature", "properties": { "poi_id": "POI-HOS-515753856", "name": "Rumah Sakit Ibu dan Anak Panti Nugraha", "category": "hospital", "osm_id": "515753856", "osm_type": "way", "lat": -6.2364834, "lon": 106.8158619, "needs_manual_verify": true }, "geometry": { "type": "Point", "coordinates": [ 106.8158619, -6.2364834 ] } },
{ "type": "Feature", "properties": { "poi_id": "POI-HOS-517115182", "name": "Rumah Sakit Royal Taruma", "category": "hospital", "osm_id": "517115182", "osm_type": "way", "lat": -6.1666566, "lon": 106.7854227, "needs_manual_verify": true }, "geometry": { "type": "Point", "coordinates": [ 106.7854227, -6.1666566 ] } },
{ "type": "Feature", "properties": { "poi_id": "POI-HOS-517146116", "name": "Rumah Sakit Antam Medika", "category": "hospital", "osm_id": "517146116", "osm_type": "way", "lat": -6.1926993, "lon": 106.9026918, "needs_manual_verify": true }, "geometry": { "type": "Point", "coordinates": [ 106.9026918, -6.1926993 ] } },
{ "type": "Feature", "properties": { "poi_id": "POI-HOS-517182375", "name": "Rumah Sakit Jiwa Dr Soeharto Heerdjan", "category": "hospital", "osm_id": "517182375", "osm_type": "way", "lat": -6.1628447, "lon": 106.7885056, "needs_manual_verify": true }, "geometry": { "type": "Point", "coordinates": [ 106.7885056, -6.1628447 ] } },
{ "type": "Feature", "properties": { "poi_id": "POI-HOS-517559312", "name": "Rumah Sakit Umum Daerah (RSUD) Koja", "category": "hospital", "osm_id": "517559312", "osm_type": "way", "lat": -6.1089611, "lon": 106.9000678, "needs_manual_verify": true }, "geometry": { "type": "Point", "coordinates": [ 106.9000678, -6.1089611 ] } },
{ "type": "Feature", "properties": { "poi_id": "POI-HOS-518174000", "name": "RSUD KECAMATAN TANJUNG PRIOK", "category": "hospital", "osm_id": "518174000", "osm_type": "way", "lat": -6.1161747, "lon": 106.8889959, "needs_manual_verify": true }, "geometry": { "type": "Point", "coordinates": [ 106.8889959, -6.1161747 ] } },
{ "type": "Feature", "properties": { "poi_id": "POI-HOS-518180742", "name": "Rumah Sakit Gandaria", "category": "hospital", "osm_id": "518180742", "osm_type": "way", "lat": -6.2439197, "lon": 106.7907445, "needs_manual_verify": true }, "geometry": { "type": "Point", "coordinates": [ 106.7907445, -6.2439197 ] } },
{ "type": "Feature", "properties": { "poi_id": "POI-HOS-518180746", "name": "RS Muhammadiyah Taman Puring", "category": "hospital", "osm_id": "518180746", "osm_type": "way", "lat": -6.2415666, "lon": 106.7871598, "needs_manual_verify": true }, "geometry": { "type": "Point", "coordinates": [ 106.7871598, -6.2415666 ] } },
{ "type": "Feature", "properties": { "poi_id": "POI-HOS-518483232", "name": "Rumah Sakit Sumber Waras", "category": "hospital", "osm_id": "518483232", "osm_type": "way", "lat": -6.1678722, "lon": 106.7979848, "needs_manual_verify": true }, "geometry": { "type": "Point", "coordinates": [ 106.7979848, -6.1678722 ] } },
{ "type": "Feature", "properties": { "poi_id": "POI-HOS-518489595", "name": "Rumah Sakit Mulyasari", "category": "hospital", "osm_id": "518489595", "osm_type": "way", "lat": -6.1290827, "lon": 106.9065008, "needs_manual_verify": true }, "geometry": { "type": "Point", "coordinates": [ 106.9065008, -6.1290827 ] } },
{ "type": "Feature", "properties": { "poi_id": "POI-HOS-518489598", "name": "RSUD Tugu Koja Jakarta", "category": "hospital", "osm_id": "518489598", "osm_type": "way", "lat": -6.1274392, "lon": 106.9071668, "needs_manual_verify": true }, "geometry": { "type": "Point", "coordinates": [ 106.9071668, -6.1274392 ] } },
{ "type": "Feature", "properties": { "poi_id": "POI-HOS-518511313", "name": "Rumah Sakit Tiara", "category": "hospital", "osm_id": "518511313", "osm_type": "way", "lat": -6.1919373, "lon": 107.0381883, "needs_manual_verify": true }, "geometry": { "type": "Point", "coordinates": [ 107.0381883, -6.1919373 ] } },
{ "type": "Feature", "properties": { "poi_id": "POI-HOS-518511876", "name": "Rumah Sakit Yadika", "category": "hospital", "osm_id": "518511876", "osm_type": "way", "lat": -6.2551312, "lon": 106.7777391, "needs_manual_verify": true }, "geometry": { "type": "Point", "coordinates": [ 106.7777391, -6.2551312 ] } },
{ "type": "Feature", "properties": { "poi_id": "POI-HOS-519262206", "name": "Rumah Sakit Dr. Suyoto", "category": "hospital", "osm_id": "519262206", "osm_type": "way", "lat": -6.2673438, "lon": 106.766691, "needs_manual_verify": true }, "geometry": { "type": "Point", "coordinates": [ 106.766691, -6.2673438 ] } },
{ "type": "Feature", "properties": { "poi_id": "POI-HOS-519292932", "name": "RS Sentra Medika Cibinong", "category": "hospital", "osm_id": "519292932", "osm_type": "way", "lat": -6.4806865, "lon": 106.8649907, "needs_manual_verify": true }, "geometry": { "type": "Point", "coordinates": [ 106.8649907, -6.4806865 ] } },
{ "type": "Feature", "properties": { "poi_id": "POI-HOS-519470129", "name": "Rumah Sakit Pelabuhan Jakarta", "category": "hospital", "osm_id": "519470129", "osm_type": "way", "lat": -6.125037, "lon": 106.9177538, "needs_manual_verify": true }, "geometry": { "type": "Point", "coordinates": [ 106.9177538, -6.125037 ] } },
{ "type": "Feature", "properties": { "poi_id": "POI-HOS-519819145", "name": "Bunda Suryatni Rumah Sakit Ibu & Anak", "category": "hospital", "osm_id": "519819145", "osm_type": "way", "lat": -6.5525508, "lon": 106.7752862, "needs_manual_verify": true }, "geometry": { "type": "Point", "coordinates": [ 106.7752862, -6.5525508 ] } },
{ "type": "Feature", "properties": { "poi_id": "POI-HOS-519822952", "name": "Rumah Sakit Islam Bogor", "category": "hospital", "osm_id": "519822952", "osm_type": "way", "lat": -6.5590343, "lon": 106.7920742, "needs_manual_verify": true }, "geometry": { "type": "Point", "coordinates": [ 106.7920742, -6.5590343 ] } },
{ "type": "Feature", "properties": { "poi_id": "POI-HOS-521153202", "name": "Rumah Sakit Petukangan", "category": "hospital", "osm_id": "521153202", "osm_type": "way", "lat": -6.2369158, "lon": 106.7517133, "needs_manual_verify": true }, "geometry": { "type": "Point", "coordinates": [ 106.7517133, -6.2369158 ] } },
{ "type": "Feature", "properties": { "poi_id": "POI-HOS-521154271", "name": "RS Pertamina Tanjung Duren", "category": "hospital", "osm_id": "521154271", "osm_type": "way", "lat": -6.1828975, "lon": 106.7907693, "needs_manual_verify": true }, "geometry": { "type": "Point", "coordinates": [ 106.7907693, -6.1828975 ] } },
{ "type": "Feature", "properties": { "poi_id": "POI-HOS-521454629", "name": "Rumah Sakit Bhayangkara", "category": "hospital", "osm_id": "521454629", "osm_type": "way", "lat": -6.2864159, "lon": 106.7703372, "needs_manual_verify": true }, "geometry": { "type": "Point", "coordinates": [ 106.7703372, -6.2864159 ] } },
{ "type": "Feature", "properties": { "poi_id": "POI-HOS-524575649", "name": "Rumah Sakit Umum Pademangan", "category": "hospital", "osm_id": "524575649", "osm_type": "way", "lat": -6.1328075, "lon": 106.840291, "needs_manual_verify": true }, "geometry": { "type": "Point", "coordinates": [ 106.840291, -6.1328075 ] } },
{ "type": "Feature", "properties": { "poi_id": "POI-HOS-525515369", "name": "RS Husada", "category": "hospital", "osm_id": "525515369", "osm_type": "way", "lat": -6.1362538, "lon": 106.7993223, "needs_manual_verify": true }, "geometry": { "type": "Point", "coordinates": [ 106.7993223, -6.1362538 ] } },
{ "type": "Feature", "properties": { "poi_id": "POI-HOS-525515460", "name": "Rumah Sakit Atma Jaya", "category": "hospital", "osm_id": "525515460", "osm_type": "way", "lat": -6.1262799, "lon": 106.7929855, "needs_manual_verify": true }, "geometry": { "type": "Point", "coordinates": [ 106.7929855, -6.1262799 ] } },
{ "type": "Feature", "properties": { "poi_id": "POI-HOS-525766019", "name": "Rumah Sakit Duta Indah", "category": "hospital", "osm_id": "525766019", "osm_type": "way", "lat": -6.1385261, "lon": 106.783809, "needs_manual_verify": true }, "geometry": { "type": "Point", "coordinates": [ 106.783809, -6.1385261 ] } },
{ "type": "Feature", "properties": { "poi_id": "POI-HOS-526051882", "name": "Rumah Sakit Islam Jakarta", "category": "hospital", "osm_id": "526051882", "osm_type": "way", "lat": -6.13979, "lon": 106.9207828, "needs_manual_verify": true }, "geometry": { "type": "Point", "coordinates": [ 106.9207828, -6.13979 ] } },
{ "type": "Feature", "properties": { "poi_id": "POI-HOS-526081060", "name": "Rumah Sakit Firdaus", "category": "hospital", "osm_id": "526081060", "osm_type": "way", "lat": -6.1561392, "lon": 106.9230698, "needs_manual_verify": true }, "geometry": { "type": "Point", "coordinates": [ 106.9230698, -6.1561392 ] } },
{ "type": "Feature", "properties": { "poi_id": "POI-HOS-526701941", "name": "Rumah Sakit Hermina Podomoro", "category": "hospital", "osm_id": "526701941", "osm_type": "way", "lat": -6.1455484, "lon": 106.8613679, "needs_manual_verify": true }, "geometry": { "type": "Point", "coordinates": [ 106.8613679, -6.1455484 ] } },
{ "type": "Feature", "properties": { "poi_id": "POI-HOS-526701955", "name": "Rumah Sakit Royal Progress", "category": "hospital", "osm_id": "526701955", "osm_type": "way", "lat": -6.1394485, "lon": 106.8654705, "needs_manual_verify": true }, "geometry": { "type": "Point", "coordinates": [ 106.8654705, -6.1394485 ] } },
{ "type": "Feature", "properties": { "poi_id": "POI-HOS-528074194", "name": "Rumah Sakit Gigi Dan Mulut Fakultas Kedokteran Gigi Universitas Prof. Dr. Moestopo Bintaro", "category": "hospital", "osm_id": "528074194", "osm_type": "way", "lat": -6.2588149, "lon": 106.764927, "needs_manual_verify": true }, "geometry": { "type": "Point", "coordinates": [ 106.764927, -6.2588149 ] } },
{ "type": "Feature", "properties": { "poi_id": "POI-HOS-534420614", "name": "Rumah Sakit Ibu dan Anak Raifa", "category": "hospital", "osm_id": "534420614", "osm_type": "way", "lat": -6.3033443, "lon": 106.7534561, "needs_manual_verify": true }, "geometry": { "type": "Point", "coordinates": [ 106.7534561, -6.3033443 ] } },
{ "type": "Feature", "properties": { "poi_id": "POI-HOS-534437017", "name": "Rumah Sakit Viamedika", "category": "hospital", "osm_id": "534437017", "osm_type": "way", "lat": -6.299777, "lon": 106.7492841, "needs_manual_verify": true }, "geometry": { "type": "Point", "coordinates": [ 106.7492841, -6.299777 ] } },
{ "type": "Feature", "properties": { "poi_id": "POI-HOS-534499153", "name": "RS UIN Syarif Hidayatullah", "category": "hospital", "osm_id": "534499153", "osm_type": "way", "lat": -6.3079143, "lon": 106.7565103, "needs_manual_verify": true }, "geometry": { "type": "Point", "coordinates": [ 106.7565103, -6.3079143 ] } },
{ "type": "Feature", "properties": { "poi_id": "POI-HOS-534520154", "name": "Rumah Sakit Hermina Ciputat", "category": "hospital", "osm_id": "534520154", "osm_type": "way", "lat": -6.3067353, "lon": 106.7594858, "needs_manual_verify": true }, "geometry": { "type": "Point", "coordinates": [ 106.7594858, -6.3067353 ] } },
{ "type": "Feature", "properties": { "poi_id": "POI-HOS-541297300", "name": "RSUD BALARAJA", "category": "hospital", "osm_id": "541297300", "osm_type": "way", "lat": -6.1977416, "lon": 106.4394694, "needs_manual_verify": true }, "geometry": { "type": "Point", "coordinates": [ 106.4394694, -6.1977416 ] } },
{ "type": "Feature", "properties": { "poi_id": "POI-HOS-545463025", "name": "RS Hermina Serpong", "category": "hospital", "osm_id": "545463025", "osm_type": "way", "lat": -6.3463007, "lon": 106.6857084, "needs_manual_verify": true }, "geometry": { "type": "Point", "coordinates": [ 106.6857084, -6.3463007 ] } },
{ "type": "Feature", "properties": { "poi_id": "POI-HOS-584908567", "name": "Rumah Sakit Bhayangkara", "category": "hospital", "osm_id": "584908567", "osm_type": "way", "lat": -6.5963436, "lon": 106.7912143, "needs_manual_verify": true }, "geometry": { "type": "Point", "coordinates": [ 106.7912143, -6.5963436 ] } },
{ "type": "Feature", "properties": { "poi_id": "POI-HOS-588302999", "name": "RS Hermina Depok", "category": "hospital", "osm_id": "588302999", "osm_type": "way", "lat": -6.3990832, "lon": 106.8255716, "needs_manual_verify": true }, "geometry": { "type": "Point", "coordinates": [ 106.8255716, -6.3990832 ] } },